var gymsList = {"features":[{"geometry":{"coordinates":[7.145552,46.803168],"type":"Point"},"type":"Feature","properties":{"typePOI":"Arène","title":"École d'ingénieurs et d'architectes de Fribourg "}},{"geometry":{"coordinates":[7.025266,46.863135],"type":"Point"},"type":"Feature","properties":{"typePOI":"Arène","title":"Le mini moulin de Coppet"}},{"geometry":{"coordinates":[7.174969,46.817021],"type":"Point"},"type":"Feature","properties":{"typePOI":"Arène","title":"Sculpture \"Le Castel\""}},{"geometry":{"coordinates":[6.910233,46.687164],"type":"Point"},"type":"Feature","properties":{"typePOI":"Arène","title":"Balançoire"}},{"geometry":{"coordinates":[7.092295,46.571667],"type":"Point"},"type":"Feature","properties":{"typePOI":"Arène","title":"Parc Naturel régional"}},{"geometry":{"coordinates":[7.137614,46.821744],"type":"Point"},"type":"Feature","properties":{"typePOI":"Arène","title":"Statue En Fer Zigzag"}},{"geometry":{"coordinates":[6.956303,46.91895],"type":"Point"},"type":"Feature","properties":{"typePOI":"Arène","title":"Restaurant Bateau"}},{"geometry":{"coordinates":[6.883869,46.656341],"type":"Point"},"type":"Feature","properties":{"typePOI":"Arène","title":"Ancienne Gare De Siviriez"}},{"geometry":{"coordinates":[7.158976,46.793669],"type":"Point"},"type":"Feature","properties":{"typePOI":"Arène","title":"Sculptures \"Pont de Lumière\""}},{"geometry":{"coordinates":[7.174354,46.810324],"type":"Point"},"type":"Feature","properties":{"typePOI":"Arène","title":"St Paul"}},{"geometry":{"coordinates":[7.061246,46.64055],"type":"Point"},"type":"Feature","properties":{"typePOI":"Arène","title":"Sculpture De La Saletta"}},{"geometry":{"coordinates":[6.926568,46.67948],"type":"Point"},"type":"Feature","properties":{"typePOI":"Arène","title":"Château De Mezieres \/ Musée Du Papier Peint"}},{"geometry":{"coordinates":[7.160101,46.812894],"type":"Point"},"type":"Feature","properties":{"typePOI":"Arène","title":"Ave Maria - Memorare 1880"}},{"geometry":{"coordinates":[7.023231,46.670542],"type":"Point"},"type":"Feature","properties":{"typePOI":"Arène","title":"Titeuf Wood"}},{"geometry":{"coordinates":[7.057061,46.617311],"type":"Point"},"type":"Feature","properties":{"typePOI":"Arène","title":"Fontrush"}},{"geometry":{"coordinates":[7.036124,46.785293],"type":"Point"},"type":"Feature","properties":{"typePOI":"Arène","title":"Pla ce de jeu"}},{"geometry":{"coordinates":[7.122991,46.871077],"type":"Point"},"type":"Feature","properties":{"typePOI":"Arène","title":"Fleur Solaire"}},{"geometry":{"coordinates":[7.140509,46.790794],"type":"Point"},"type":"Feature","properties":{"typePOI":"Arène","title":"Hotel Du Moleson"}},{"geometry":{"coordinates":[7.094373,46.603372],"type":"Point"},"type":"Feature","properties":{"typePOI":"Arène","title":"Bienvenue à Broc"}},{"geometry":{"coordinates":[7.329609,46.888307],"type":"Point"},"type":"Feature","properties":{"typePOI":"Arène","title":"Safari Skulpturen"}},{"geometry":{"coordinates":[6.97349,46.700911],"type":"Point"},"type":"Feature","properties":{"typePOI":"Arène","title":"Boule De Pierre"}},{"geometry":{"coordinates":[7.150928,46.813515],"type":"Point"},"type":"Feature","properties":{"typePOI":"Arène","title":"Fontaine du Levant"}},{"geometry":{"coordinates":[7.002702,46.700614],"type":"Point"},"type":"Feature","properties":{"typePOI":"Arène","title":"PYROTESS Cross"}},{"geometry":{"coordinates":[7.101382,46.602709],"type":"Point"},"type":"Feature","properties":{"typePOI":"Arène","title":"Fresque"}},{"geometry":{"coordinates":[6.85006,46.51002],"type":"Point"},"type":"Feature","properties":{"typePOI":"Arène","title":"Sculpture métallique"}},{"geometry":{"coordinates":[7.082467,46.583967],"type":"Point"},"type":"Feature","properties":{"typePOI":"Arène","title":"Museum Giger "}},{"geometry":{"coordinates":[6.846759,46.849098],"type":"Point"},"type":"Feature","properties":{"typePOI":"Arène","title":"Hommage Aux Soldats Des Deux Guerres"}},{"geometry":{"coordinates":[7.060466,46.629703],"type":"Point"},"type":"Feature","properties":{"typePOI":"Arène","title":"Raboud Group"}},{"geometry":{"coordinates":[7.200247,46.835044],"type":"Point"},"type":"Feature","properties":{"typePOI":"Arène","title":"Wegkreutz Jetschwil"}},{"geometry":{"coordinates":[7.08271,46.584492],"type":"Point"},"type":"Feature","properties":{"typePOI":"Arène","title":"Renaison"}},{"geometry":{"coordinates":[7.063588,46.623318],"type":"Point"},"type":"Feature","properties":{"typePOI":"Arène","title":"Place de jeu"}},{"geometry":{"coordinates":[7.164435,46.737987],"type":"Point"},"type":"Feature","properties":{"typePOI":"Arène","title":"Chapelle d'Essert"}},{"geometry":{"coordinates":[7.277729,46.873442],"type":"Point"},"type":"Feature","properties":{"typePOI":"Arène","title":"Jesus-Statue Wünnewil"}},{"geometry":{"coordinates":[7.083292,46.624252],"type":"Point"},"type":"Feature","properties":{"typePOI":"Arène","title":"Gravure D'une Grue"}},{"geometry":{"coordinates":[7.06698,46.851627],"type":"Point"},"type":"Feature","properties":{"typePOI":"Arène","title":"Petite Place de Jeu"}},{"geometry":{"coordinates":[7.264817,46.817695],"type":"Point"},"type":"Feature","properties":{"typePOI":"Arène","title":"Obermonten Pilgerweg 4"}},{"geometry":{"coordinates":[7.101717,46.560404],"type":"Point"},"type":"Feature","properties":{"typePOI":"Arène","title":"Pâturages Des Vaches"}},{"geometry":{"coordinates":[7.087099,46.865072],"type":"Point"},"type":"Feature","properties":{"typePOI":"Arène","title":"Croix En Bois "}},{"geometry":{"coordinates":[6.863519,46.861632],"type":"Point"},"type":"Feature","properties":{"typePOI":"Arène","title":"Chateau De La Corbière"}},{"geometry":{"coordinates":[7.213928,46.811893],"type":"Point"},"type":"Feature","properties":{"typePOI":"Arène","title":"Harmonie des Waldes"}},{"geometry":{"coordinates":[7.040933,46.760288],"type":"Point"},"type":"Feature","properties":{"typePOI":"Arène","title":"club des lutteurs - Schwingverein Cottens"}},{"geometry":{"coordinates":[7.148593,46.795444],"type":"Point"},"type":"Feature","properties":{"typePOI":"Arène","title":"Wagon Le Cardinal"}},{"geometry":{"coordinates":[7.148757,46.784728],"type":"Point"},"type":"Feature","properties":{"typePOI":"Arène","title":"Les Pères Du St Sacrement"}},{"geometry":{"coordinates":[7.115818,46.893666],"type":"Point"},"type":"Feature","properties":{"typePOI":"Arène","title":"Doppel-Brunnen"}},{"geometry":{"coordinates":[7.114891,46.769665],"type":"Point"},"type":"Feature","properties":{"typePOI":"Arène","title":"La Vache Grangeneuve"}},{"geometry":{"coordinates":[7.137782,46.696425],"type":"Point"},"type":"Feature","properties":{"typePOI":"Arène","title":"La Chapelle de La Roche "}},{"geometry":{"coordinates":[7.054024,46.624719],"type":"Point"},"type":"Feature","properties":{"typePOI":"Arène","title":"Collège du Sud"}},{"geometry":{"coordinates":[7.174293,46.803537],"type":"Point"},"type":"Feature","properties":{"typePOI":"Arène","title":"La Croix Du Gotteron"}},{"geometry":{"coordinates":[7.163661,46.784645],"type":"Point"},"type":"Feature","properties":{"typePOI":"Arène","title":"Station forestière"}},{"geometry":{"coordinates":[7.155057,46.815493],"type":"Point"},"type":"Feature","properties":{"typePOI":"Arène","title":"Chapelle St-leonard"}},{"geometry":{"coordinates":[7.187141,46.831949],"type":"Point"},"type":"Feature","properties":{"typePOI":"Arène","title":"Father And Son"}},{"geometry":{"coordinates":[7.19004,46.804373],"type":"Point"},"type":"Feature","properties":{"typePOI":"Arène","title":"Colimaçon De Pierre"}},{"geometry":{"coordinates":[6.850051,46.521707],"type":"Point"},"type":"Feature","properties":{"typePOI":"Arène","title":"Church Of BOSSONENS"}},{"geometry":{"coordinates":[7.085856,46.587573],"type":"Point"},"type":"Feature","properties":{"typePOI":"Arène","title":"Aigle Royal Et Sa Chouette"}},{"geometry":{"coordinates":[7.162415,46.788881],"type":"Point"},"type":"Feature","properties":{"typePOI":"Arène","title":"Ruine"}},{"geometry":{"coordinates":[7.137542,46.931847],"type":"Point"},"type":"Feature","properties":{"typePOI":"Arène","title":"Gesamtmelioration Murten Altavilla"}},{"geometry":{"coordinates":[7.116714,46.784348],"type":"Point"},"type":"Feature","properties":{"typePOI":"Arène","title":"Sainte-Apolline"}},{"geometry":{"coordinates":[6.901556,46.528525],"type":"Point"},"type":"Feature","properties":{"typePOI":"Arène","title":"Église Catholique de Châtel Saint Denis "}},{"geometry":{"coordinates":[7.095305,46.805716],"type":"Point"},"type":"Feature","properties":{"typePOI":"Arène","title":"Terrain de foot Fc Corminboeuf"}},{"geometry":{"coordinates":[7.107413,46.925042],"type":"Point"},"type":"Feature","properties":{"typePOI":"Arène","title":"Pinte De Meyriez"}},{"geometry":{"coordinates":[7.163474,46.802654],"type":"Point"},"type":"Feature","properties":{"typePOI":"Arène","title":"Service Archeologique Fribourg"}},{"geometry":{"coordinates":[7.309794,46.891318],"type":"Point"},"type":"Feature","properties":{"typePOI":"Arène","title":"Sense Vitaparcours Posten 13"}},{"geometry":{"coordinates":[6.953213,46.693218],"type":"Point"},"type":"Feature","properties":{"typePOI":"Arène","title":"Berlens Église "}},{"geometry":{"coordinates":[7.019441,46.786049],"type":"Point"},"type":"Feature","properties":{"typePOI":"Arène","title":"Car In Bloom"}},{"geometry":{"coordinates":[7.136843,46.941128],"type":"Point"},"type":"Feature","properties":{"typePOI":"Arène","title":"Wheels"}},{"geometry":{"coordinates":[7.096488,46.742922],"type":"Point"},"type":"Feature","properties":{"typePOI":"Arène","title":"La Tuffière"}},{"geometry":{"coordinates":[7.2911,46.730631],"type":"Point"},"type":"Feature","properties":{"typePOI":"Arène","title":"Spielplatz im Stäfeliwegquartier"}},{"geometry":{"coordinates":[7.092872,46.759423],"type":"Point"},"type":"Feature","properties":{"typePOI":"Arène","title":"Tête De Vaches"}},{"geometry":{"coordinates":[7.225512,46.89139],"type":"Point"},"type":"Feature","properties":{"typePOI":"Arène","title":"Oldschool Farmhouse"}},{"geometry":{"coordinates":[7.110468,46.797402],"type":"Point"},"type":"Feature","properties":{"typePOI":"Arène","title":"Valons Mystère"}},{"geometry":{"coordinates":[7.139674,46.82057],"type":"Point"},"type":"Feature","properties":{"typePOI":"Arène","title":"Wagon En Bois"}},{"geometry":{"coordinates":[7.029992,46.74935],"type":"Point"},"type":"Feature","properties":{"typePOI":"Arène","title":"Croix du père Schuwey"}},{"geometry":{"coordinates":[7.103195,46.81272],"type":"Point"},"type":"Feature","properties":{"typePOI":"Arène","title":"Place de jeux des Blés"}},{"geometry":{"coordinates":[7.125415,46.936356],"type":"Point"},"type":"Feature","properties":{"typePOI":"Arène","title":"Gemeindekanzlei"}},{"geometry":{"coordinates":[7.158176,46.817707],"type":"Point"},"type":"Feature","properties":{"typePOI":"Arène","title":"Joseph "}},{"geometry":{"coordinates":[7.151365,46.802696],"type":"Point"},"type":"Feature","properties":{"typePOI":"Arène","title":"Batiment Baroque"}},{"geometry":{"coordinates":[7.213615,46.811488],"type":"Point"},"type":"Feature","properties":{"typePOI":"Arène","title":"Grotte Tafers"}},{"geometry":{"coordinates":[7.299866,46.892452],"type":"Point"},"type":"Feature","properties":{"typePOI":"Arène","title":"Altes Zeughaus "}},{"geometry":{"coordinates":[7.018265,46.830574],"type":"Point"},"type":"Feature","properties":{"typePOI":"Arène","title":"Fontaine de Léchelles"}},{"geometry":{"coordinates":[6.838781,46.85026],"type":"Point"},"type":"Feature","properties":{"typePOI":"Arène","title":"Capitainerie du Port"}},{"geometry":{"coordinates":[6.887606,46.813292],"type":"Point"},"type":"Feature","properties":{"typePOI":"Arène","title":"Chute Grillagée"}},{"geometry":{"coordinates":[6.936098,46.751048],"type":"Point"},"type":"Feature","properties":{"typePOI":"Arène","title":"Sculpture"}},{"geometry":{"coordinates":[7.074744,46.772039],"type":"Point"},"type":"Feature","properties":{"typePOI":"Arène","title":"Air de jeu Champ Didon "}},{"geometry":{"coordinates":[7.183154,46.95419],"type":"Point"},"type":"Feature","properties":{"typePOI":"Arène","title":"Rock-y Ried"}},{"geometry":{"coordinates":[6.82253,46.792802],"type":"Point"},"type":"Feature","properties":{"typePOI":"Arène","title":"Fontaine du village de Franex"}},{"geometry":{"coordinates":[7.259801,46.865347],"type":"Point"},"type":"Feature","properties":{"typePOI":"Arène","title":"Jesusstatue Hagnet"}},{"geometry":{"coordinates":[6.927596,46.572942],"type":"Point"},"type":"Feature","properties":{"typePOI":"Arène","title":"Église de Semsales"}},{"geometry":{"coordinates":[7.11591,46.800144],"type":"Point"},"type":"Feature","properties":{"typePOI":"Arène","title":"Au Bois De Mon Coeur "}},{"geometry":{"coordinates":[7.161918,46.621336],"type":"Point"},"type":"Feature","properties":{"typePOI":"Arène","title":"les bains de la Gruyere"}},{"geometry":{"coordinates":[7.139983,46.898795],"type":"Point"},"type":"Feature","properties":{"typePOI":"Arène","title":"Fontaine de 1821 Cressier"}},{"geometry":{"coordinates":[7.065964,46.831982],"type":"Point"},"type":"Feature","properties":{"typePOI":"Arène","title":"Gare de Grolley"}},{"geometry":{"coordinates":[7.172259,46.811105],"type":"Point"},"type":"Feature","properties":{"typePOI":"Arène","title":"La Chapelle De Bertigny"}},{"geometry":{"coordinates":[7.200953,46.990154],"type":"Point"},"type":"Feature","properties":{"typePOI":"Arène","title":"Jungle Trek Pavilion"}},{"geometry":{"coordinates":[6.845355,46.848815],"type":"Point"},"type":"Feature","properties":{"typePOI":"Arène","title":"Eglise Des Petits Poissons "}},{"geometry":{"coordinates":[6.810662,46.611405],"type":"Point"},"type":"Feature","properties":{"typePOI":"Arène","title":"Auberge Communale"}},{"geometry":{"coordinates":[7.126465,46.786022],"type":"Point"},"type":"Feature","properties":{"typePOI":"Arène","title":"Glâne Tower"}},{"geometry":{"coordinates":[7.121168,46.930239],"type":"Point"},"type":"Feature","properties":{"typePOI":"Arène","title":"Huge Hammer"}},{"geometry":{"coordinates":[7.077348,46.777974],"type":"Point"},"type":"Feature","properties":{"typePOI":"Arène","title":"Cia Le Coq"}},{"geometry":{"coordinates":[7.020192,46.73633],"type":"Point"},"type":"Feature","properties":{"typePOI":"Arène","title":"Eglise"}},{"geometry":{"coordinates":[7.134552,46.937898],"type":"Point"},"type":"Feature","properties":{"typePOI":"Arène","title":"Chaise Haute"}},{"geometry":{"coordinates":[7.044839,46.613732],"type":"Point"},"type":"Feature","properties":{"typePOI":"Arène","title":"Panneau Agip"}},{"geometry":{"coordinates":[7.177181,46.750658],"type":"Point"},"type":"Feature","properties":{"typePOI":"Arène","title":"Aire de jeux de Praroman"}},{"geometry":{"coordinates":[6.809867,46.825646],"type":"Point"},"type":"Feature","properties":{"typePOI":"Arène","title":"Brunnen 1950"}},{"geometry":{"coordinates":[7.268744,46.824482],"type":"Point"},"type":"Feature","properties":{"typePOI":"Arène","title":"Schutzzonen für Trinkwasser Niedermonten"}},{"geometry":{"coordinates":[7.096624,46.833589],"type":"Point"},"type":"Feature","properties":{"typePOI":"Arène","title":"Zurich parcoursvita 4"}},{"geometry":{"coordinates":[7.097409,46.952203],"type":"Point"},"type":"Feature","properties":{"typePOI":"Arène","title":"Steel Dragon"}},{"geometry":{"coordinates":[7.07111,46.833621],"type":"Point"},"type":"Feature","properties":{"typePOI":"Arène","title":"Eglise De Grolley"}},{"geometry":{"coordinates":[7.126406,46.812455],"type":"Point"},"type":"Feature","properties":{"typePOI":"Arène","title":"De Boccard"}},{"geometry":{"coordinates":[7.119221,46.963014],"type":"Point"},"type":"Feature","properties":{"typePOI":"Arène","title":"Fontaine Du Home Du Vully"}},{"geometry":{"coordinates":[7.140275,46.89822],"type":"Point"},"type":"Feature","properties":{"typePOI":"Arène","title":"Cressier FR - Église"}},{"geometry":{"coordinates":[7.302206,46.825427],"type":"Point"},"type":"Feature","properties":{"typePOI":"Arène","title":"Kleiner Brunnen"}},{"geometry":{"coordinates":[7.062555,46.505647],"type":"Point"},"type":"Feature","properties":{"typePOI":"Arène","title":"Église"}},{"geometry":{"coordinates":[7.064945,46.768136],"type":"Point"},"type":"Feature","properties":{"typePOI":"Arène","title":"Maison Communale Neyruz"}},{"geometry":{"coordinates":[7.176566,46.800105],"type":"Point"},"type":"Feature","properties":{"typePOI":"Arène","title":"Notre Dame Du Carmel"}},{"geometry":{"coordinates":[7.105964,46.918933],"type":"Point"},"type":"Feature","properties":{"typePOI":"Arène","title":"orange Rutsche"}},{"geometry":{"coordinates":[6.889383,46.83568],"type":"Point"},"type":"Feature","properties":{"typePOI":"Arène","title":"Croix 1774"}},{"geometry":{"coordinates":[6.835366,46.846136],"type":"Point"},"type":"Feature","properties":{"typePOI":"Arène","title":"Grenouille au banjo"}},{"geometry":{"coordinates":[6.790944,46.821701],"type":"Point"},"type":"Feature","properties":{"typePOI":"Arène","title":"Mosaik mit Sonne"}},{"geometry":{"coordinates":[7.061572,46.632958],"type":"Point"},"type":"Feature","properties":{"typePOI":"Arène","title":"Totem De Glasson"}},{"geometry":{"coordinates":[7.114226,46.766594],"type":"Point"},"type":"Feature","properties":{"typePOI":"Arène","title":"Stonewall"}},{"geometry":{"coordinates":[7.159916,46.807604],"type":"Point"},"type":"Feature","properties":{"typePOI":"Arène","title":"Élément En Trois Pièces"}},{"geometry":{"coordinates":[7.26724,46.661693],"type":"Point"},"type":"Feature","properties":{"typePOI":"Arène","title":"Häxehuus"}},{"geometry":{"coordinates":[6.988395,46.852954],"type":"Point"},"type":"Feature","properties":{"typePOI":"Arène","title":"Eglise De Dompierre"}},{"geometry":{"coordinates":[7.282959,46.811733],"type":"Point"},"type":"Feature","properties":{"typePOI":"Arène","title":"Goldkuh Trifft Goldsau"}},{"geometry":{"coordinates":[7.107067,46.645356],"type":"Point"},"type":"Feature","properties":{"typePOI":"Arène","title":"Vieux Lavoir"}},{"geometry":{"coordinates":[7.113774,46.92721],"type":"Point"},"type":"Feature","properties":{"typePOI":"Arène","title":"Expo.02"}},{"geometry":{"coordinates":[7.187237,46.961526],"type":"Point"},"type":"Feature","properties":{"typePOI":"Arène","title":"280 Millionen Jahre"}},{"geometry":{"coordinates":[7.021392,46.704835],"type":"Point"},"type":"Feature","properties":{"typePOI":"Arène","title":"Croix Villarlod"}},{"geometry":{"coordinates":[6.968453,46.770567],"type":"Point"},"type":"Feature","properties":{"typePOI":"Arène","title":"Église De Torny "}},{"geometry":{"coordinates":[7.096155,46.782013],"type":"Point"},"type":"Feature","properties":{"typePOI":"Arène","title":"Venus Du Cisel"}},{"geometry":{"coordinates":[7.134134,46.812546],"type":"Point"},"type":"Feature","properties":{"typePOI":"Arène","title":"Pont de la Chassotte"}},{"geometry":{"coordinates":[6.863872,46.829488],"type":"Point"},"type":"Feature","properties":{"typePOI":"Arène","title":"Fontaine de Frasnes"}},{"geometry":{"coordinates":[7.007662,46.759599],"type":"Point"},"type":"Feature","properties":{"typePOI":"Arène","title":"Fresque Football"}},{"geometry":{"coordinates":[7.062361,46.611501],"type":"Point"},"type":"Feature","properties":{"typePOI":"Arène","title":"Panier ! "}},{"geometry":{"coordinates":[7.153035,46.796501],"type":"Point"},"type":"Feature","properties":{"typePOI":"Arène","title":"Justice Mosaic"}},{"geometry":{"coordinates":[7.087145,46.682942],"type":"Point"},"type":"Feature","properties":{"typePOI":"Arène","title":"Restoroute de la Gruyère"}},{"geometry":{"coordinates":[6.9164,46.695702],"type":"Point"},"type":"Feature","properties":{"typePOI":"Arène","title":"Tour De Billens Tour Du Midi"}},{"geometry":{"coordinates":[7.172484,46.810911],"type":"Point"},"type":"Feature","properties":{"typePOI":"Arène","title":"Fontaine De La Chapelle"}},{"geometry":{"coordinates":[7.126367,46.810373],"type":"Point"},"type":"Feature","properties":{"typePOI":"Arène","title":"Croix du Domaine Toutvent"}},{"geometry":{"coordinates":[7.195487,46.850573],"type":"Point"},"type":"Feature","properties":{"typePOI":"Arène","title":"Reformierte Kirchgemeinde"}},{"geometry":{"coordinates":[7.065046,46.767823],"type":"Point"},"type":"Feature","properties":{"typePOI":"Arène","title":"Église de Neyruz"}},{"geometry":{"coordinates":[7.210381,46.761142],"type":"Point"},"type":"Feature","properties":{"typePOI":"Arène","title":"Kirche Giffers"}},{"geometry":{"coordinates":[7.128478,46.812838],"type":"Point"},"type":"Feature","properties":{"typePOI":"Arène","title":"Roi Grenouille"}},{"geometry":{"coordinates":[7.192464,46.975087],"type":"Point"},"type":"Feature","properties":{"typePOI":"Arène","title":"Historisches Stellwerk Kerzers"}},{"geometry":{"coordinates":[6.90628,46.530713],"type":"Point"},"type":"Feature","properties":{"typePOI":"Arène","title":"Fontaine du Bourg"}},{"geometry":{"coordinates":[6.977283,46.818504],"type":"Point"},"type":"Feature","properties":{"typePOI":"Arène","title":"Fontaine Kennedy"}},{"geometry":{"coordinates":[7.159254,46.857295],"type":"Point"},"type":"Feature","properties":{"typePOI":"Arène","title":"Chapelle De Barbereche"}},{"geometry":{"coordinates":[7.1112,46.908057],"type":"Point"},"type":"Feature","properties":{"typePOI":"Arène","title":"Les Hommes Debout"}},{"geometry":{"coordinates":[7.010626,46.792358],"type":"Point"},"type":"Feature","properties":{"typePOI":"Arène","title":"Agilité"}},{"geometry":{"coordinates":[7.023644,46.670598],"type":"Point"},"type":"Feature","properties":{"typePOI":"Arène","title":"Chemin Des Sculptures"}},{"geometry":{"coordinates":[6.834651,46.831562],"type":"Point"},"type":"Feature","properties":{"typePOI":"Arène","title":"Terrain de jeux de Châtillon"}},{"geometry":{"coordinates":[7.070234,46.771022],"type":"Point"},"type":"Feature","properties":{"typePOI":"Arène","title":"Place de jeu la chaumière"}},{"geometry":{"coordinates":[7.213143,46.809595],"type":"Point"},"type":"Feature","properties":{"typePOI":"Arène","title":"Infotafel Bienenweg"}},{"geometry":{"coordinates":[7.201005,46.932634],"type":"Point"},"type":"Feature","properties":{"typePOI":"Arène","title":"Doppelbrunnen Ulmiz"}},{"geometry":{"coordinates":[6.844373,46.83361],"type":"Point"},"type":"Feature","properties":{"typePOI":"Arène","title":"Colombe De Lully"}},{"geometry":{"coordinates":[7.162626,46.806187],"type":"Point"},"type":"Feature","properties":{"typePOI":"Arène","title":"Cathédrale Saint-Nicolas Fribourg"}},{"geometry":{"coordinates":[7.15139,46.81308],"type":"Point"},"type":"Feature","properties":{"typePOI":"Arène","title":"Piscines Du Levant"}},{"geometry":{"coordinates":[7.152717,46.8728],"type":"Point"},"type":"Feature","properties":{"typePOI":"Arène","title":"Eulentrio"}},{"geometry":{"coordinates":[7.09659,46.834367],"type":"Point"},"type":"Feature","properties":{"typePOI":"Arène","title":"Art Forestier "}},{"geometry":{"coordinates":[6.855258,46.501855],"type":"Point"},"type":"Feature","properties":{"typePOI":"Arène","title":"Sentier botanique"}},{"geometry":{"coordinates":[6.948837,46.52173],"type":"Point"},"type":"Feature","properties":{"typePOI":"Arène","title":"Statut Des Libellules"}},{"geometry":{"coordinates":[7.060853,46.832384],"type":"Point"},"type":"Feature","properties":{"typePOI":"Arène","title":"Terrain de petanque de la caserne de Grolley"}},{"geometry":{"coordinates":[7.091727,46.700567],"type":"Point"},"type":"Feature","properties":{"typePOI":"Arène","title":"L'île D'ogoz"}},{"geometry":{"coordinates":[7.16617,46.769619],"type":"Point"},"type":"Feature","properties":{"typePOI":"Arène","title":"Game Place Of Ice Rink"}},{"geometry":{"coordinates":[7.095936,46.974452],"type":"Point"},"type":"Feature","properties":{"typePOI":"Arène","title":"Camping Les 3 Lacs"}},{"geometry":{"coordinates":[7.182036,46.803015],"type":"Point"},"type":"Feature","properties":{"typePOI":"Arène","title":"Pinte des Trois Canards"}},{"geometry":{"coordinates":[6.932982,46.607789],"type":"Point"},"type":"Feature","properties":{"typePOI":"Arène","title":"Le Sentier"}},{"geometry":{"coordinates":[7.069245,46.857834],"type":"Point"},"type":"Feature","properties":{"typePOI":"Arène","title":"Paroisse De Courtion "}},{"geometry":{"coordinates":[7.147448,46.828101],"type":"Point"},"type":"Feature","properties":{"typePOI":"Arène","title":"Oh La Vache!"}},{"geometry":{"coordinates":[7.146014,46.754272],"type":"Point"},"type":"Feature","properties":{"typePOI":"Arène","title":"Trace De Vie"}},{"geometry":{"coordinates":[7.128055,46.8125],"type":"Point"},"type":"Feature","properties":{"typePOI":"Arène","title":"Place d'Affry"}},{"geometry":{"coordinates":[7.084537,46.948603],"type":"Point"},"type":"Feature","properties":{"typePOI":"Arène","title":"Fontaine adm. com. Haut-Vully"}},{"geometry":{"coordinates":[7.108197,46.834058],"type":"Point"},"type":"Feature","properties":{"typePOI":"Arène","title":"Fontaine 1895"}},{"geometry":{"coordinates":[6.843147,46.850462],"type":"Point"},"type":"Feature","properties":{"typePOI":"Arène","title":"Jesus Fatalus"}},{"geometry":{"coordinates":[7.018222,46.668569],"type":"Point"},"type":"Feature","properties":{"typePOI":"Arène","title":"Trône De Dame Nature "}},{"geometry":{"coordinates":[7.056096,46.516998],"type":"Point"},"type":"Feature","properties":{"typePOI":"Arène","title":"Eglise D'albeuve"}},{"geometry":{"coordinates":[7.091373,46.83228],"type":"Point"},"type":"Feature","properties":{"typePOI":"Arène","title":"Les Ours de la Forêt"}},{"geometry":{"coordinates":[7.106473,46.822113],"type":"Point"},"type":"Feature","properties":{"typePOI":"Arène","title":"Église de Belfaux"}},{"geometry":{"coordinates":[6.915778,46.718308],"type":"Point"},"type":"Feature","properties":{"typePOI":"Arène","title":"Forêt de Billens"}},{"geometry":{"coordinates":[7.097222,46.781944],"type":"Point"},"type":"Feature","properties":{"typePOI":"Arène","title":"Racines du Rocher"}},{"geometry":{"coordinates":[6.903318,46.667792],"type":"Point"},"type":"Feature","properties":{"typePOI":"Arène","title":"Chapelle Notre Dame Du Bois"}},{"geometry":{"coordinates":[6.989976,46.619176],"type":"Point"},"type":"Feature","properties":{"typePOI":"Arène","title":"Gare de Vaulruz-Sud"}},{"geometry":{"coordinates":[6.881372,46.784141],"type":"Point"},"type":"Feature","properties":{"typePOI":"Arène","title":"Église de Ménières"}},{"geometry":{"coordinates":[7.063132,46.621686],"type":"Point"},"type":"Feature","properties":{"typePOI":"Arène","title":"Rond-Point Jarres"}},{"geometry":{"coordinates":[7.032788,46.716389],"type":"Point"},"type":"Feature","properties":{"typePOI":"Arène","title":"Fontaine Du Berger"}},{"geometry":{"coordinates":[7.165204,46.805221],"type":"Point"},"type":"Feature","properties":{"typePOI":"Arène","title":"L'homme A La Croix"}},{"geometry":{"coordinates":[6.898696,46.526053],"type":"Point"},"type":"Feature","properties":{"typePOI":"Arène","title":"Gare De Chatel St Denis"}},{"geometry":{"coordinates":[7.164825,46.799217],"type":"Point"},"type":"Feature","properties":{"typePOI":"Arène","title":"Livre du Barrage de la Maigrauge"}},{"geometry":{"coordinates":[6.886742,46.518758],"type":"Point"},"type":"Feature","properties":{"typePOI":"Arène","title":"Fontaine de la Rapasse"}},{"geometry":{"coordinates":[7.155975,46.805334],"type":"Point"},"type":"Feature","properties":{"typePOI":"Arène","title":"Horloge des Places"}},{"geometry":{"coordinates":[6.782223,46.811845],"type":"Point"},"type":"Feature","properties":{"typePOI":"Arène","title":"La Lécheyre mit Pferde Wandkunst"}},{"geometry":{"coordinates":[7.059471,46.605852],"type":"Point"},"type":"Feature","properties":{"typePOI":"Arène","title":"Co De La Tour"}},{"geometry":{"coordinates":[7.160155,46.775141],"type":"Point"},"type":"Feature","properties":{"typePOI":"Arène","title":"Fontaine Du Flutiste De Gela"}},{"geometry":{"coordinates":[7.276559,46.659673],"type":"Point"},"type":"Feature","properties":{"typePOI":"Arène","title":"Schwarzsee Enstehung"}},{"geometry":{"coordinates":[7.146836,46.803327],"type":"Point"},"type":"Feature","properties":{"typePOI":"Arène","title":"Église Saint Pierre "}},{"geometry":{"coordinates":[7.175134,46.803055],"type":"Point"},"type":"Feature","properties":{"typePOI":"Arène","title":"La Vache Du Gotteron"}},{"geometry":{"coordinates":[7.101158,46.818671],"type":"Point"},"type":"Feature","properties":{"typePOI":"Arène","title":"Place de jeux Bonjard"}},{"geometry":{"coordinates":[7.280764,46.871908],"type":"Point"},"type":"Feature","properties":{"typePOI":"Arène","title":"Wünnewil Train Station"}},{"geometry":{"coordinates":[7.060737,46.849841],"type":"Point"},"type":"Feature","properties":{"typePOI":"Arène","title":"Promenade du Perron"}},{"geometry":{"coordinates":[7.034652,46.751142],"type":"Point"},"type":"Feature","properties":{"typePOI":"Arène","title":"Gare Cottens Fr 01"}},{"geometry":{"coordinates":[7.144827,46.810643],"type":"Point"},"type":"Feature","properties":{"typePOI":"Arène","title":"Éponge Verte"}},{"geometry":{"coordinates":[7.069386,46.539948],"type":"Point"},"type":"Feature","properties":{"typePOI":"Arène","title":"Eglise De Villars Sous Mont"}},{"geometry":{"coordinates":[7.171265,46.913343],"type":"Point"},"type":"Feature","properties":{"typePOI":"Arène","title":"Eiche Und Mythologie "}},{"geometry":{"coordinates":[7.274831,46.827239],"type":"Point"},"type":"Feature","properties":{"typePOI":"Arène","title":"Wegkreuz Grenchen"}},{"geometry":{"coordinates":[7.072572,46.837161],"type":"Point"},"type":"Feature","properties":{"typePOI":"Arène","title":"Terrain de foot de Grolley"}},{"geometry":{"coordinates":[7.132502,46.947967],"type":"Point"},"type":"Feature","properties":{"typePOI":"Arène","title":"Juragewässerkorrektion"}},{"geometry":{"coordinates":[7.27657,46.874638],"type":"Point"},"type":"Feature","properties":{"typePOI":"Arène","title":"Altes Gemeindehaus Wünnewil"}},{"geometry":{"coordinates":[7.014775,46.666702],"type":"Point"},"type":"Feature","properties":{"typePOI":"Arène","title":"Chiens De Prairies"}},{"geometry":{"coordinates":[7.215307,46.81086],"type":"Point"},"type":"Feature","properties":{"typePOI":"Arène","title":"Mühlespiel"}},{"geometry":{"coordinates":[7.280804,46.66816],"type":"Point"},"type":"Feature","properties":{"typePOI":"Arène","title":"Ausguck Schwarzsee"}},{"geometry":{"coordinates":[6.910546,46.685765],"type":"Point"},"type":"Feature","properties":{"typePOI":"Arène","title":"Bicubic Romont"}},{"geometry":{"coordinates":[7.059908,46.722452],"type":"Point"},"type":"Feature","properties":{"typePOI":"Arène","title":"Salle de sport"}},{"geometry":{"coordinates":[7.06167,46.715054],"type":"Point"},"type":"Feature","properties":{"typePOI":"Arène","title":"Le Singe De Vuisternnens En Ogoz"}},{"geometry":{"coordinates":[7.314691,46.889919],"type":"Point"},"type":"Feature","properties":{"typePOI":"Arène","title":"Information Place Flamatt"}},{"geometry":{"coordinates":[7.16051,46.770922],"type":"Point"},"type":"Feature","properties":{"typePOI":"Arène","title":"Brouette Suspendue"}},{"geometry":{"coordinates":[7.188475,46.84513],"type":"Point"},"type":"Feature","properties":{"typePOI":"Arène","title":"Tonneau Cave des Rochers"}},{"geometry":{"coordinates":[7.200638,46.973896],"type":"Point"},"type":"Feature","properties":{"typePOI":"Arène","title":"Bibliothek Kerzers "}},{"geometry":{"coordinates":[7.194097,46.845334],"type":"Point"},"type":"Feature","properties":{"typePOI":"Arène","title":"Holy Cros Of Sandacher"}},{"geometry":{"coordinates":[6.938293,46.895225],"type":"Point"},"type":"Feature","properties":{"typePOI":"Arène","title":"Gletterens Bus Station"}},{"geometry":{"coordinates":[7.164066,46.805357],"type":"Point"},"type":"Feature","properties":{"typePOI":"Arène","title":"L'homme A L'enfant"}},{"geometry":{"coordinates":[7.158265,46.797202],"type":"Point"},"type":"Feature","properties":{"typePOI":"Arène","title":"Humans Nº2"}},{"geometry":{"coordinates":[7.138953,46.776668],"type":"Point"},"type":"Feature","properties":{"typePOI":"Arène","title":"Place De Jeux Quartier Bel-air "}},{"geometry":{"coordinates":[7.100328,46.698225],"type":"Point"},"type":"Feature","properties":{"typePOI":"Arène","title":"Château D'Ogoz"}},{"geometry":{"coordinates":[7.015894,46.828994],"type":"Point"},"type":"Feature","properties":{"typePOI":"Arène","title":"Église De Léchelles"}},{"geometry":{"coordinates":[7.075018,46.648151],"type":"Point"},"type":"Feature","properties":{"typePOI":"Arène","title":"La Vierge"}},{"geometry":{"coordinates":[7.102143,46.602644],"type":"Point"},"type":"Feature","properties":{"typePOI":"Arène","title":"Fontaine de la Grue"}},{"geometry":{"coordinates":[7.155231,46.805456],"type":"Point"},"type":"Feature","properties":{"typePOI":"Arène","title":"Fontaine de Saint Pierre Fribourg"}},{"geometry":{"coordinates":[7.169337,46.804826],"type":"Point"},"type":"Feature","properties":{"typePOI":"Arène","title":"La Fleur De Lys"}},{"geometry":{"coordinates":[7.146865,46.824144],"type":"Point"},"type":"Feature","properties":{"typePOI":"Arène","title":"Souvenir du syndicat d'amélioration foncière"}},{"geometry":{"coordinates":[6.779954,46.81692],"type":"Point"},"type":"Feature","properties":{"typePOI":"Arène","title":"Naturschutzgebiet Baie d'Yvonand"}},{"geometry":{"coordinates":[7.312716,46.636684],"type":"Point"},"type":"Feature","properties":{"typePOI":"Arène","title":"Schafberg"}},{"geometry":{"coordinates":[7.197598,46.940678],"type":"Point"},"type":"Feature","properties":{"typePOI":"Arène","title":"Kantonsschild"}},{"geometry":{"coordinates":[7.158272,46.820834],"type":"Point"},"type":"Feature","properties":{"typePOI":"Arène","title":"Mors Auxilium Vitae"}},{"geometry":{"coordinates":[7.16412,46.798229],"type":"Point"},"type":"Feature","properties":{"typePOI":"Arène","title":"Pressa"}},{"geometry":{"coordinates":[6.978736,46.622902],"type":"Point"},"type":"Feature","properties":{"typePOI":"Arène","title":"Terrain De Foot"}},{"geometry":{"coordinates":[7.132498,46.794669],"type":"Point"},"type":"Feature","properties":{"typePOI":"Arène","title":"Nuithonie"}},{"geometry":{"coordinates":[7.066727,46.656135],"type":"Point"},"type":"Feature","properties":{"typePOI":"Arène","title":"Monolith"}},{"geometry":{"coordinates":[7.113016,46.796726],"type":"Point"},"type":"Feature","properties":{"typePOI":"Arène","title":"Serrés Ou Espacés "}},{"geometry":{"coordinates":[7.08906,46.536333],"type":"Point"},"type":"Feature","properties":{"typePOI":"Arène","title":"Globe Métallique"}},{"geometry":{"coordinates":[7.122079,46.958198],"type":"Point"},"type":"Feature","properties":{"typePOI":"Arène","title":"Eine Plantage ist nicht Naturwald"}},{"geometry":{"coordinates":[6.914417,46.795956],"type":"Point"},"type":"Feature","properties":{"typePOI":"Arène","title":"Jésus sur la croix"}},{"geometry":{"coordinates":[7.196469,46.761459],"type":"Point"},"type":"Feature","properties":{"typePOI":"Arène","title":"Les Luges"}},{"geometry":{"coordinates":[7.008547,46.79137],"type":"Point"},"type":"Feature","properties":{"typePOI":"Arène","title":"Rek"}},{"geometry":{"coordinates":[7.266652,46.75472],"type":"Point"},"type":"Feature","properties":{"typePOI":"Arène","title":"Alter Holuzbrunnen Buchenkapelle"}},{"geometry":{"coordinates":[6.994194,46.624604],"type":"Point"},"type":"Feature","properties":{"typePOI":"Arène","title":"Les 3 Sapins Vaulruz FR"}},{"geometry":{"coordinates":[7.069409,46.604418],"type":"Point"},"type":"Feature","properties":{"typePOI":"Arène","title":"Chapelle De La Motta"}},{"geometry":{"coordinates":[7.109704,46.813711],"type":"Point"},"type":"Feature","properties":{"typePOI":"Arène","title":"Barrière De Pierres"}},{"geometry":{"coordinates":[6.83045,46.783794],"type":"Point"},"type":"Feature","properties":{"typePOI":"Arène","title":"Fontaine 1890"}},{"geometry":{"coordinates":[7.151327,46.794962],"type":"Point"},"type":"Feature","properties":{"typePOI":"Arène","title":"Fresque Fri-Son"}},{"geometry":{"coordinates":[7.084482,46.626488],"type":"Point"},"type":"Feature","properties":{"typePOI":"Arène","title":"Petite croix"}},{"geometry":{"coordinates":[7.067084,46.62648],"type":"Point"},"type":"Feature","properties":{"typePOI":"Arène","title":"Globull"}},{"geometry":{"coordinates":[6.854636,46.849293],"type":"Point"},"type":"Feature","properties":{"typePOI":"Arène","title":"La Prillaz"}},{"geometry":{"coordinates":[6.82248,46.620297],"type":"Point"},"type":"Feature","properties":{"typePOI":"Arène","title":"Château De Rue"}},{"geometry":{"coordinates":[7.02112,46.615685],"type":"Point"},"type":"Feature","properties":{"typePOI":"Arène","title":"Fontaine de quartier"}},{"geometry":{"coordinates":[6.888852,46.876524],"type":"Point"},"type":"Feature","properties":{"typePOI":"Arène","title":"Ancien lavoir"}},{"geometry":{"coordinates":[7.136851,46.842345],"type":"Point"},"type":"Feature","properties":{"typePOI":"Arène","title":"Carillon Pensier"}},{"geometry":{"coordinates":[7.096255,46.788951],"type":"Point"},"type":"Feature","properties":{"typePOI":"Arène","title":"Gare De Matran"}},{"geometry":{"coordinates":[7.054908,46.690142],"type":"Point"},"type":"Feature","properties":{"typePOI":"Arène","title":"HABITAT"}},{"geometry":{"coordinates":[7.066175,46.608996],"type":"Point"},"type":"Feature","properties":{"typePOI":"Arène","title":"Église De la tour-de-trême"}},{"geometry":{"coordinates":[7.017093,46.548793],"type":"Point"},"type":"Feature","properties":{"typePOI":"Arène","title":"Sommet du Moléson"}},{"geometry":{"coordinates":[6.917427,46.697156],"type":"Point"},"type":"Feature","properties":{"typePOI":"Arène","title":"Tour Sans Tête"}},{"geometry":{"coordinates":[7.200756,46.740488],"type":"Point"},"type":"Feature","properties":{"typePOI":"Arène","title":"Eglise Bonnefontaine"}},{"geometry":{"coordinates":[7.124884,46.864898],"type":"Point"},"type":"Feature","properties":{"typePOI":"Arène","title":"Post office Courtepin"}},{"geometry":{"coordinates":[7.160787,46.950883],"type":"Point"},"type":"Feature","properties":{"typePOI":"Arène","title":"BLUMEN DER VERBOGENEN RÖHRE "}},{"geometry":{"coordinates":[7.297643,46.791183],"type":"Point"},"type":"Feature","properties":{"typePOI":"Arène","title":"Schwarzdorn"}},{"geometry":{"coordinates":[7.17198,46.744951],"type":"Point"},"type":"Feature","properties":{"typePOI":"Arène","title":"Hotel Croix Blanche"}},{"geometry":{"coordinates":[6.91912,46.696609],"type":"Point"},"type":"Feature","properties":{"typePOI":"Arène","title":"Romont Saint-Jacques Fountain"}},{"geometry":{"coordinates":[6.994922,46.716197],"type":"Point"},"type":"Feature","properties":{"typePOI":"Arène","title":"Panneau d'informations officielles"}},{"geometry":{"coordinates":[7.111007,46.70051],"type":"Point"},"type":"Feature","properties":{"typePOI":"Arène","title":"Fontaine à 2 goulots"}},{"geometry":{"coordinates":[7.25011,46.768673],"type":"Point"},"type":"Feature","properties":{"typePOI":"Arène","title":"Kirche Weissenstein"}},{"geometry":{"coordinates":[7.269835,46.862],"type":"Point"},"type":"Feature","properties":{"typePOI":"Arène","title":"Kreuz Mülital"}},{"geometry":{"coordinates":[7.092286,46.798377],"type":"Point"},"type":"Feature","properties":{"typePOI":"Arène","title":"5. Mobilité"}},{"geometry":{"coordinates":[7.055183,46.687394],"type":"Point"},"type":"Feature","properties":{"typePOI":"Arène","title":"Sainte vierge des bucherons"}},{"geometry":{"coordinates":[7.159649,46.801005],"type":"Point"},"type":"Feature","properties":{"typePOI":"Arène","title":"PORTE DE LA MAIGRAUGE"}},{"geometry":{"coordinates":[7.124368,46.866335],"type":"Point"},"type":"Feature","properties":{"typePOI":"Arène","title":"Salle Polyvalente"}},{"geometry":{"coordinates":[6.881099,46.87431],"type":"Point"},"type":"Feature","properties":{"typePOI":"Arène","title":"point de vue: place de tir d'aviation"}},{"geometry":{"coordinates":[7.117411,46.76517],"type":"Point"},"type":"Feature","properties":{"typePOI":"Arène","title":"Portail de l'Abbaye d'Hauterive"}},{"geometry":{"coordinates":[7.049957,46.767409],"type":"Point"},"type":"Feature","properties":{"typePOI":"Arène","title":"Abdominaux"}},{"geometry":{"coordinates":[7.101233,46.806618],"type":"Point"},"type":"Feature","properties":{"typePOI":"Arène","title":"Entremêlé"}},{"geometry":{"coordinates":[6.810414,46.837695],"type":"Point"},"type":"Feature","properties":{"typePOI":"Arène","title":"Plage en zone naturelle prioritaire"}},{"geometry":{"coordinates":[6.836885,46.505908],"type":"Point"},"type":"Feature","properties":{"typePOI":"Arène","title":"Cabane De Pic Nic"}},{"geometry":{"coordinates":[7.173081,46.81586],"type":"Point"},"type":"Feature","properties":{"typePOI":"Arène","title":"Tischtennis"}},{"geometry":{"coordinates":[7.134362,46.871169],"type":"Point"},"type":"Feature","properties":{"typePOI":"Arène","title":"Place de jeux"}},{"geometry":{"coordinates":[6.923248,46.699093],"type":"Point"},"type":"Feature","properties":{"typePOI":"Arène","title":"Fontaine J1918P "}},{"geometry":{"coordinates":[7.303278,46.829505],"type":"Point"},"type":"Feature","properties":{"typePOI":"Arène","title":"1. Kapelle im Schlosswald"}},{"geometry":{"coordinates":[7.256677,46.796374],"type":"Point"},"type":"Feature","properties":{"typePOI":"Arène","title":"Quartierspielplatz Alterswil"}},{"geometry":{"coordinates":[7.166427,46.804617],"type":"Point"},"type":"Feature","properties":{"typePOI":"Arène","title":"Ancien Couvent Des Augustins "}},{"geometry":{"coordinates":[6.923743,46.603291],"type":"Point"},"type":"Feature","properties":{"typePOI":"Arène","title":"Le Sentier - La Cabane"}},{"geometry":{"coordinates":[7.021388,46.736277],"type":"Point"},"type":"Feature","properties":{"typePOI":"Arène","title":"Croix Métal"}},{"geometry":{"coordinates":[7.066458,46.856657],"type":"Point"},"type":"Feature","properties":{"typePOI":"Arène","title":"Creux-Follet"}},{"geometry":{"coordinates":[6.853278,46.525782],"type":"Point"},"type":"Feature","properties":{"typePOI":"Arène","title":"Gare de Bossonens"}},{"geometry":{"coordinates":[7.032379,46.769124],"type":"Point"},"type":"Feature","properties":{"typePOI":"Arène","title":"Croix Du Croisement"}},{"geometry":{"coordinates":[7.118563,46.964468],"type":"Point"},"type":"Feature","properties":{"typePOI":"Arène","title":"Hôtel de la Gare"}},{"geometry":{"coordinates":[7.11181,46.95999],"type":"Point"},"type":"Feature","properties":{"typePOI":"Arène","title":"La Petite Chapelle"}},{"geometry":{"coordinates":[7.208142,46.997898],"type":"Point"},"type":"Feature","properties":{"typePOI":"Arène","title":"1949 Brunnen"}},{"geometry":{"coordinates":[6.879694,46.657544],"type":"Point"},"type":"Feature","properties":{"typePOI":"Arène","title":"Sivirez Église Catholique"}},{"geometry":{"coordinates":[7.03715,46.773616],"type":"Point"},"type":"Feature","properties":{"typePOI":"Arène","title":"Place de jeu"}},{"geometry":{"coordinates":[7.119265,46.962809],"type":"Point"},"type":"Feature","properties":{"typePOI":"Arène","title":"Le Renard"}},{"geometry":{"coordinates":[7.285931,46.742041],"type":"Point"},"type":"Feature","properties":{"typePOI":"Arène","title":"Kirche Plaffeien"}},{"geometry":{"coordinates":[6.800802,46.826508],"type":"Point"},"type":"Feature","properties":{"typePOI":"Arène","title":"Aussichtplattform \"Clairères\""}},{"geometry":{"coordinates":[7.162668,46.619214],"type":"Point"},"type":"Feature","properties":{"typePOI":"Arène","title":"Charmey Church"}},{"geometry":{"coordinates":[7.082292,46.742231],"type":"Point"},"type":"Feature","properties":{"typePOI":"Arène","title":"Administration communale de Magnedens"}},{"geometry":{"coordinates":[7.122591,46.928936],"type":"Point"},"type":"Feature","properties":{"typePOI":"Arène","title":"Kulturzentrum Murten"}},{"geometry":{"coordinates":[7.192296,46.769244],"type":"Point"},"type":"Feature","properties":{"typePOI":"Arène","title":"Hippolyt"}},{"geometry":{"coordinates":[7.086731,46.757965],"type":"Point"},"type":"Feature","properties":{"typePOI":"Arène","title":"Église d'Ecuvillens"}},{"geometry":{"coordinates":[7.107018,46.793827],"type":"Point"},"type":"Feature","properties":{"typePOI":"Arène","title":"Collection Mural"}},{"geometry":{"coordinates":[7.080535,46.693785],"type":"Point"},"type":"Feature","properties":{"typePOI":"Arène","title":"La Fontanna 1986"}},{"geometry":{"coordinates":[7.14757,46.811092],"type":"Point"},"type":"Feature","properties":{"typePOI":"Arène","title":"Clocher de Ste-Thérèse"}},{"geometry":{"coordinates":[7.073344,46.951133],"type":"Point"},"type":"Feature","properties":{"typePOI":"Arène","title":"Stony Ladyface"}},{"geometry":{"coordinates":[7.037311,46.562018],"type":"Point"},"type":"Feature","properties":{"typePOI":"Arène","title":"Lieu De Recueillement"}},{"geometry":{"coordinates":[7.099939,46.9199],"type":"Point"},"type":"Feature","properties":{"typePOI":"Arène","title":"Victoriam"}},{"geometry":{"coordinates":[7.139,46.800635],"type":"Point"},"type":"Feature","properties":{"typePOI":"Arène","title":"Le Bouclier Maya"}},{"geometry":{"coordinates":[7.241163,46.885253],"type":"Point"},"type":"Feature","properties":{"typePOI":"Arène","title":"Old Cannon"}},{"geometry":{"coordinates":[7.179429,46.748045],"type":"Point"},"type":"Feature","properties":{"typePOI":"Arène","title":"Aire de jeux et jardim du mouret"}},{"geometry":{"coordinates":[6.969873,46.792563],"type":"Point"},"type":"Feature","properties":{"typePOI":"Arène","title":"Église Mannens"}},{"geometry":{"coordinates":[6.980582,46.889894],"type":"Point"},"type":"Feature","properties":{"typePOI":"Arène","title":"Roi Sur La Croix"}},{"geometry":{"coordinates":[7.17513,46.812767],"type":"Point"},"type":"Feature","properties":{"typePOI":"Arène","title":"Toboggan bossu"}},{"geometry":{"coordinates":[7.116654,46.928075],"type":"Point"},"type":"Feature","properties":{"typePOI":"Arène","title":"Bornellum Superior"}},{"geometry":{"coordinates":[7.277637,46.76191],"type":"Point"},"type":"Feature","properties":{"typePOI":"Arène","title":"Wegkreuz"}},{"geometry":{"coordinates":[7.088555,46.681045],"type":"Point"},"type":"Feature","properties":{"typePOI":"Arène","title":"FC Gumefens"}},{"geometry":{"coordinates":[7.111914,46.833457],"type":"Point"},"type":"Feature","properties":{"typePOI":"Arène","title":"Vieux Paysan"}},{"geometry":{"coordinates":[7.019999,46.66921],"type":"Point"},"type":"Feature","properties":{"typePOI":"Arène","title":"Le Cochon Sac Et Balais"}},{"geometry":{"coordinates":[7.325361,46.889452],"type":"Point"},"type":"Feature","properties":{"typePOI":"Arène","title":"Dreifaltigkeitssäule"}},{"geometry":{"coordinates":[7.166478,46.807081],"type":"Point"},"type":"Feature","properties":{"typePOI":"Arène","title":"Chez Bobonne"}},{"geometry":{"coordinates":[7.0731,46.658869],"type":"Point"},"type":"Feature","properties":{"typePOI":"Arène","title":"La Blanche Église"}},{"geometry":{"coordinates":[6.91813,46.693412],"type":"Point"},"type":"Feature","properties":{"typePOI":"Arène","title":"vitro parcours Romont: sentier du verre, suite"}},{"geometry":{"coordinates":[7.080578,46.778527],"type":"Point"},"type":"Feature","properties":{"typePOI":"Arène","title":"Cia Le Grand Ours"}},{"geometry":{"coordinates":[7.041388,46.815535],"type":"Point"},"type":"Feature","properties":{"typePOI":"Arène","title":"Garfield"}},{"geometry":{"coordinates":[6.848501,46.853616],"type":"Point"},"type":"Feature","properties":{"typePOI":"Arène","title":"De La Rose Minigolf"}},{"geometry":{"coordinates":[6.817603,46.838249],"type":"Point"},"type":"Feature","properties":{"typePOI":"Arène","title":"Chasse au Sanglier Info-Point"}},{"geometry":{"coordinates":[7.100783,46.719956],"type":"Point"},"type":"Feature","properties":{"typePOI":"Arène","title":"Eglise de Rossens"}},{"geometry":{"coordinates":[7.25917,46.795387],"type":"Point"},"type":"Feature","properties":{"typePOI":"Arène","title":"Kirchenbrunnen"}},{"geometry":{"coordinates":[7.169856,46.791245],"type":"Point"},"type":"Feature","properties":{"typePOI":"Arène","title":"Forêt et eau potable"}},{"geometry":{"coordinates":[7.1306,46.949429],"type":"Point"},"type":"Feature","properties":{"typePOI":"Arène","title":"Aussichtsturm Chablais"}},{"geometry":{"coordinates":[7.179267,46.806104],"type":"Point"},"type":"Feature","properties":{"typePOI":"Arène","title":"Quatier Spielplatz"}},{"geometry":{"coordinates":[7.223909,46.840723],"type":"Point"},"type":"Feature","properties":{"typePOI":"Arène","title":"Kreuz in Ried"}},{"geometry":{"coordinates":[7.008197,46.664243],"type":"Point"},"type":"Feature","properties":{"typePOI":"Arène","title":"Bienvenue À La Forêt "}},{"geometry":{"coordinates":[6.918403,46.695557],"type":"Point"},"type":"Feature","properties":{"typePOI":"Arène","title":"Romont Church"}},{"geometry":{"coordinates":[7.161197,46.775794],"type":"Point"},"type":"Feature","properties":{"typePOI":"Arène","title":"Le Guitariste"}},{"geometry":{"coordinates":[7.113159,46.843121],"type":"Point"},"type":"Feature","properties":{"typePOI":"Arène","title":"Centre Forestier La Corbaz"}},{"geometry":{"coordinates":[6.848885,46.854333],"type":"Point"},"type":"Feature","properties":{"typePOI":"Arène","title":"Les Frogs du Club de Pétanque"}},{"geometry":{"coordinates":[7.276091,46.841034],"type":"Point"},"type":"Feature","properties":{"typePOI":"Arène","title":"Jakobs Kapelle"}},{"geometry":{"coordinates":[7.250827,46.818203],"type":"Point"},"type":"Feature","properties":{"typePOI":"Arène","title":"Hl. Sebastians Kapelle"}},{"geometry":{"coordinates":[7.179912,46.943825],"type":"Point"},"type":"Feature","properties":{"typePOI":"Arène","title":"Fasshäuschen mit Adler"}},{"geometry":{"coordinates":[7.313574,46.891492],"type":"Point"},"type":"Feature","properties":{"typePOI":"Arène","title":"Sense Holzglockenturm"}},{"geometry":{"coordinates":[7.149227,46.780077],"type":"Point"},"type":"Feature","properties":{"typePOI":"Arène","title":"Marly Le Petit"}},{"geometry":{"coordinates":[7.027599,46.802866],"type":"Point"},"type":"Feature","properties":{"typePOI":"Arène","title":"Poisson Ancre "}},{"geometry":{"coordinates":[7.228206,46.89415],"type":"Point"},"type":"Feature","properties":{"typePOI":"Arène","title":"Kirche Bösingen"}},{"geometry":{"coordinates":[6.827789,46.832926],"type":"Point"},"type":"Feature","properties":{"typePOI":"Arène","title":"Nouvelle fontaine du tilleul"}},{"geometry":{"coordinates":[7.152489,46.799563],"type":"Point"},"type":"Feature","properties":{"typePOI":"Arène","title":"Simplon Invader"}},{"geometry":{"coordinates":[7.111351,46.619711],"type":"Point"},"type":"Feature","properties":{"typePOI":"Arène","title":"Place de jeux Denis"}},{"geometry":{"coordinates":[7.114687,46.797971],"type":"Point"},"type":"Feature","properties":{"typePOI":"Arène","title":"Scène Forestière "}},{"geometry":{"coordinates":[7.073246,46.582579],"type":"Point"},"type":"Feature","properties":{"typePOI":"Arène","title":"Gare De Gruyères"}},{"geometry":{"coordinates":[7.117204,46.930245],"type":"Point"},"type":"Feature","properties":{"typePOI":"Arène","title":"Goldenes Schiff"}},{"geometry":{"coordinates":[7.083125,46.540744],"type":"Point"},"type":"Feature","properties":{"typePOI":"Arène","title":"Memorial Mission Catholique"}},{"geometry":{"coordinates":[6.993824,46.770398],"type":"Point"},"type":"Feature","properties":{"typePOI":"Arène","title":"Les Ours Corserey"}},{"geometry":{"coordinates":[7.064718,46.656647],"type":"Point"},"type":"Feature","properties":{"typePOI":"Arène","title":"Place Bernard Romanens "}},{"geometry":{"coordinates":[7.105973,46.817009],"type":"Point"},"type":"Feature","properties":{"typePOI":"Arène","title":"Gare Belfaux CFF"}},{"geometry":{"coordinates":[7.010123,46.665059],"type":"Point"},"type":"Feature","properties":{"typePOI":"Arène","title":"Le Pinguin Solar"}},{"geometry":{"coordinates":[7.103577,46.67089],"type":"Point"},"type":"Feature","properties":{"typePOI":"Arène","title":"Vers le soir"}},{"geometry":{"coordinates":[7.337292,46.854998],"type":"Point"},"type":"Feature","properties":{"typePOI":"Arène","title":"Kapelle Hostettle-Lärchenberg"}},{"geometry":{"coordinates":[7.051889,46.762603],"type":"Point"},"type":"Feature","properties":{"typePOI":"Arène","title":"Croix Droite"}},{"geometry":{"coordinates":[7.118417,46.929157],"type":"Point"},"type":"Feature","properties":{"typePOI":"Arène","title":"Porte de Berne"}},{"geometry":{"coordinates":[6.874962,46.658739],"type":"Point"},"type":"Feature","properties":{"typePOI":"Arène","title":"Foot Fontaine "}},{"geometry":{"coordinates":[7.081005,46.583418],"type":"Point"},"type":"Feature","properties":{"typePOI":"Arène","title":"Fontaine"}},{"geometry":{"coordinates":[7.248451,46.854655],"type":"Point"},"type":"Feature","properties":{"typePOI":"Arène","title":"RF Fountain"}},{"geometry":{"coordinates":[6.993899,46.717435],"type":"Point"},"type":"Feature","properties":{"typePOI":"Arène","title":"Église D'Orsonnens"}},{"geometry":{"coordinates":[7.002164,46.756323],"type":"Point"},"type":"Feature","properties":{"typePOI":"Arène","title":"Metal Circle"}},{"geometry":{"coordinates":[7.05831,46.620275],"type":"Point"},"type":"Feature","properties":{"typePOI":"Arène","title":"Église Saint-Pierre-aux-liens"}},{"geometry":{"coordinates":[7.137444,46.728453],"type":"Point"},"type":"Feature","properties":{"typePOI":"Arène","title":"Le clocher"}},{"geometry":{"coordinates":[7.260503,46.822415],"type":"Point"},"type":"Feature","properties":{"typePOI":"Arène","title":"Gemeindehaus St. Antoni"}},{"geometry":{"coordinates":[7.097218,46.952496],"type":"Point"},"type":"Feature","properties":{"typePOI":"Arène","title":"Bel-air"}},{"geometry":{"coordinates":[7.252596,46.861844],"type":"Point"},"type":"Feature","properties":{"typePOI":"Arène","title":"Fabromont"}},{"geometry":{"coordinates":[7.112967,46.92303],"type":"Point"},"type":"Feature","properties":{"typePOI":"Arène","title":"Zeus Fountain"}},{"geometry":{"coordinates":[7.103229,46.822769],"type":"Point"},"type":"Feature","properties":{"typePOI":"Arène","title":"Le Laitier"}},{"geometry":{"coordinates":[7.103012,46.819628],"type":"Point"},"type":"Feature","properties":{"typePOI":"Arène","title":"Place de jeux Champ Bonnard"}},{"geometry":{"coordinates":[7.118598,46.917125],"type":"Point"},"type":"Feature","properties":{"typePOI":"Arène","title":"Schlacht Denkmal"}},{"geometry":{"coordinates":[7.285124,46.6655],"type":"Point"},"type":"Feature","properties":{"typePOI":"Arène","title":"Schwarzsee Lions"}},{"geometry":{"coordinates":[7.114946,46.839147],"type":"Point"},"type":"Feature","properties":{"typePOI":"Arène","title":"Chapelle de La Corbaz"}},{"geometry":{"coordinates":[7.099456,46.785778],"type":"Point"},"type":"Feature","properties":{"typePOI":"Arène","title":"Dancing Modern Statue"}},{"geometry":{"coordinates":[7.229922,46.893282],"type":"Point"},"type":"Feature","properties":{"typePOI":"Arène","title":"The Roman Fountain"}},{"geometry":{"coordinates":[6.845397,46.642429],"type":"Point"},"type":"Feature","properties":{"typePOI":"Arène","title":"Picture On Wall"}},{"geometry":{"coordinates":[7.104033,46.718821],"type":"Point"},"type":"Feature","properties":{"typePOI":"Arène","title":"Ancienne chapelle de Rossens"}},{"geometry":{"coordinates":[7.138055,46.941768],"type":"Point"},"type":"Feature","properties":{"typePOI":"Arène","title":"Pink Metal Car"}},{"geometry":{"coordinates":[7.0947,46.741274],"type":"Point"},"type":"Feature","properties":{"typePOI":"Arène","title":"Bloc De Tuff"}},{"geometry":{"coordinates":[7.202195,46.932814],"type":"Point"},"type":"Feature","properties":{"typePOI":"Arène","title":"Wagenrad Brunnen"}},{"geometry":{"coordinates":[7.162201,46.811903],"type":"Point"},"type":"Feature","properties":{"typePOI":"Arène","title":"Boulodrome "}},{"geometry":{"coordinates":[7.149869,46.912723],"type":"Point"},"type":"Feature","properties":{"typePOI":"Arène","title":"Gemeindeschreiberei Salvenach"}},{"geometry":{"coordinates":[6.890862,46.81467],"type":"Point"},"type":"Feature","properties":{"typePOI":"Arène","title":"Fontaine Cugy FR"}},{"geometry":{"coordinates":[7.150842,46.821481],"type":"Point"},"type":"Feature","properties":{"typePOI":"Arène","title":"Conciergerie De L'ECAB"}},{"geometry":{"coordinates":[7.157429,46.622156],"type":"Point"},"type":"Feature","properties":{"typePOI":"Arène","title":"Fontaine offert par la caisse Raiffeisen"}},{"geometry":{"coordinates":[7.12109,46.788298],"type":"Point"},"type":"Feature","properties":{"typePOI":"Arène","title":"Vache Villars"}},{"geometry":{"coordinates":[6.877686,46.53364],"type":"Point"},"type":"Feature","properties":{"typePOI":"Arène","title":"Croix Des Lapies "}},{"geometry":{"coordinates":[6.81219,46.834201],"type":"Point"},"type":"Feature","properties":{"typePOI":"Arène","title":"Eglise De Font "}},{"geometry":{"coordinates":[7.014283,46.666785],"type":"Point"},"type":"Feature","properties":{"typePOI":"Arène","title":"Perroquet Wood"}},{"geometry":{"coordinates":[7.107484,46.803337],"type":"Point"},"type":"Feature","properties":{"typePOI":"Arène","title":"Banc En Rondin"}},{"geometry":{"coordinates":[7.123962,46.790377],"type":"Point"},"type":"Feature","properties":{"typePOI":"Arène","title":"Statue au Lion"}},{"geometry":{"coordinates":[6.956963,46.720142],"type":"Point"},"type":"Feature","properties":{"typePOI":"Arène","title":"Église De Villaz-saint-pierre"}},{"geometry":{"coordinates":[7.06613,46.721918],"type":"Point"},"type":"Feature","properties":{"typePOI":"Arène","title":"Eglise de Farvagny"}},{"geometry":{"coordinates":[7.094985,46.785894],"type":"Point"},"type":"Feature","properties":{"typePOI":"Arène","title":"Laiterie De Matran "}},{"geometry":{"coordinates":[6.836704,46.582798],"type":"Point"},"type":"Feature","properties":{"typePOI":"Arène","title":"Croix D'entrée De Chapelle"}},{"geometry":{"coordinates":[7.196644,46.770163],"type":"Point"},"type":"Feature","properties":{"typePOI":"Arène","title":"Croix De La Fromagerie"}},{"geometry":{"coordinates":[7.151355,46.803172],"type":"Point"},"type":"Feature","properties":{"typePOI":"Arène","title":"Gare Fribourg \/ Freiburg"}},{"geometry":{"coordinates":[7.163446,46.792477],"type":"Point"},"type":"Feature","properties":{"typePOI":"Arène","title":"Réserve Naturelle "}},{"geometry":{"coordinates":[7.311002,46.865953],"type":"Point"},"type":"Feature","properties":{"typePOI":"Arène","title":"Schloss Ueberstorf "}},{"geometry":{"coordinates":[6.897945,46.537637],"type":"Point"},"type":"Feature","properties":{"typePOI":"Arène","title":"Centre sportif"}},{"geometry":{"coordinates":[7.165735,46.804202],"type":"Point"},"type":"Feature","properties":{"typePOI":"Arène","title":"Fontaine Poissons"}},{"geometry":{"coordinates":[7.12559,46.930159],"type":"Point"},"type":"Feature","properties":{"typePOI":"Arène","title":"Sangoku Graffiti"}},{"geometry":{"coordinates":[7.125729,46.954625],"type":"Point"},"type":"Feature","properties":{"typePOI":"Arène","title":"Wildschwein im Walde"}},{"geometry":{"coordinates":[6.8008,46.8173],"type":"Point"},"type":"Feature","properties":{"typePOI":"Arène","title":"Notre-Dame de Bonne Fontaine"}},{"geometry":{"coordinates":[6.803973,46.827301],"type":"Point"},"type":"Feature","properties":{"typePOI":"Arène","title":"Point de Vue Grande Cariçaie"}},{"geometry":{"coordinates":[7.086411,46.95382],"type":"Point"},"type":"Feature","properties":{"typePOI":"Arène","title":"Roches Grises"}},{"geometry":{"coordinates":[7.117085,46.793741],"type":"Point"},"type":"Feature","properties":{"typePOI":"Arène","title":"Lapin Végétal"}},{"geometry":{"coordinates":[7.116797,46.923708],"type":"Point"},"type":"Feature","properties":{"typePOI":"Arène","title":"rostige Eiche"}},{"geometry":{"coordinates":[7.276118,46.663981],"type":"Point"},"type":"Feature","properties":{"typePOI":"Arène","title":"Kletterwand - Campus Schwarzsee"}},{"geometry":{"coordinates":[6.84575,46.848283],"type":"Point"},"type":"Feature","properties":{"typePOI":"Arène","title":"Fleur De Lys"}},{"geometry":{"coordinates":[7.262135,46.793901],"type":"Point"},"type":"Feature","properties":{"typePOI":"Arène","title":"Wandtattoo"}},{"geometry":{"coordinates":[6.899716,46.691852],"type":"Point"},"type":"Feature","properties":{"typePOI":"Arène","title":"Chris de Billens "}},{"geometry":{"coordinates":[7.108262,46.824456],"type":"Point"},"type":"Feature","properties":{"typePOI":"Arène","title":"Tête de Bouddha"}},{"geometry":{"coordinates":[7.065641,46.609987],"type":"Point"},"type":"Feature","properties":{"typePOI":"Arène","title":"Letter M"}},{"geometry":{"coordinates":[7.137609,46.938104],"type":"Point"},"type":"Feature","properties":{"typePOI":"Arène","title":"Botanischer Weg"}},{"geometry":{"coordinates":[7.003069,46.76014],"type":"Point"},"type":"Feature","properties":{"typePOI":"Arène","title":"Église De Lentigny"}},{"geometry":{"coordinates":[6.995118,46.817398],"type":"Point"},"type":"Feature","properties":{"typePOI":"Arène","title":"Mobilisés"}},{"geometry":{"coordinates":[6.912743,46.658975],"type":"Point"},"type":"Feature","properties":{"typePOI":"Arène","title":"Église De Villaraboud "}},{"geometry":{"coordinates":[6.830185,46.645579],"type":"Point"},"type":"Feature","properties":{"typePOI":"Arène","title":"Zegro Statue"}},{"geometry":{"coordinates":[7.069087,46.604396],"type":"Point"},"type":"Feature","properties":{"typePOI":"Arène","title":"Pont en bois naturel"}},{"geometry":{"coordinates":[7.108495,46.60711],"type":"Point"},"type":"Feature","properties":{"typePOI":"Arène","title":"Maison Cailler "}},{"geometry":{"coordinates":[7.217954,46.807625],"type":"Point"},"type":"Feature","properties":{"typePOI":"Arène","title":"Jesus, Jean, Marie & Marie Madeleine"}},{"geometry":{"coordinates":[7.239859,46.770198],"type":"Point"},"type":"Feature","properties":{"typePOI":"Arène","title":"Jesus sur la Croix"}},{"geometry":{"coordinates":[7.166955,46.912844],"type":"Point"},"type":"Feature","properties":{"typePOI":"Arène","title":"Eichen Und Biodiversität"}},{"geometry":{"coordinates":[7.168072,46.802693],"type":"Point"},"type":"Feature","properties":{"typePOI":"Arène","title":"Fontaine De Moustique "}},{"geometry":{"coordinates":[6.962655,46.71727],"type":"Point"},"type":"Feature","properties":{"typePOI":"Arène","title":"Sphère Soudée IMC "}},{"geometry":{"coordinates":[7.128088,46.779079],"type":"Point"},"type":"Feature","properties":{"typePOI":"Arène","title":"Eau de qualité"}},{"geometry":{"coordinates":[7.085199,46.539427],"type":"Point"},"type":"Feature","properties":{"typePOI":"Arène","title":"Fontaine De La Ferme De Bois "}},{"geometry":{"coordinates":[7.145543,46.797155],"type":"Point"},"type":"Feature","properties":{"typePOI":"Arène","title":"Le Fantôme "}},{"geometry":{"coordinates":[7.283378,46.610071],"type":"Point"},"type":"Feature","properties":{"typePOI":"Arène","title":"Kapelle"}},{"geometry":{"coordinates":[7.122202,46.928864],"type":"Point"},"type":"Feature","properties":{"typePOI":"Arène","title":"Sculpture Pinceaux Beaulieupark"}},{"geometry":{"coordinates":[7.219799,46.808959],"type":"Point"},"type":"Feature","properties":{"typePOI":"Arène","title":"Natura 2007"}},{"geometry":{"coordinates":[7.093417,46.801483],"type":"Point"},"type":"Feature","properties":{"typePOI":"Arène","title":"1. Mobilité"}},{"geometry":{"coordinates":[6.897928,46.651736],"type":"Point"},"type":"Feature","properties":{"typePOI":"Arène","title":"Wood Cross"}},{"geometry":{"coordinates":[6.86647,46.600227],"type":"Point"},"type":"Feature","properties":{"typePOI":"Arène","title":"Mission 1953"}},{"geometry":{"coordinates":[6.812008,46.802425],"type":"Point"},"type":"Feature","properties":{"typePOI":"Arène","title":"Sculpture avec armoiries de 1997"}},{"geometry":{"coordinates":[7.1064,46.956774],"type":"Point"},"type":"Feature","properties":{"typePOI":"Arène","title":"Office du Tourisme-Nant"}},{"geometry":{"coordinates":[7.099703,46.902063],"type":"Point"},"type":"Feature","properties":{"typePOI":"Arène","title":"FC Courgevaux "}},{"geometry":{"coordinates":[7.136509,46.79034],"type":"Point"},"type":"Feature","properties":{"typePOI":"Arène","title":"Cygne Du Platy"}},{"geometry":{"coordinates":[6.821708,46.835969],"type":"Point"},"type":"Feature","properties":{"typePOI":"Arène","title":"Croix de la vierge noire. 1809"}},{"geometry":{"coordinates":[7.126533,46.912099],"type":"Point"},"type":"Feature","properties":{"typePOI":"Arène","title":"Schloss Münchenwiler"}},{"geometry":{"coordinates":[7.136901,46.812723],"type":"Point"},"type":"Feature","properties":{"typePOI":"Arène","title":"Métal - Caisse Compensation"}},{"geometry":{"coordinates":[7.141179,46.812469],"type":"Point"},"type":"Feature","properties":{"typePOI":"Arène","title":"Les Petits Hommes Bleus"}},{"geometry":{"coordinates":[7.085928,46.94912],"type":"Point"},"type":"Feature","properties":{"typePOI":"Arène","title":"Fontaine Coiff'air"}},{"geometry":{"coordinates":[7.257321,46.861796],"type":"Point"},"type":"Feature","properties":{"typePOI":"Arène","title":"Animal Walk"}},{"geometry":{"coordinates":[6.771619,46.810198],"type":"Point"},"type":"Feature","properties":{"typePOI":"Arène","title":"Blechmann"}},{"geometry":{"coordinates":[7.1908,46.846111],"type":"Point"},"type":"Feature","properties":{"typePOI":"Arène","title":"Church of Düdingen"}},{"geometry":{"coordinates":[7.158487,46.818858],"type":"Point"},"type":"Feature","properties":{"typePOI":"Arène","title":"Croix Du Christ"}},{"geometry":{"coordinates":[7.132854,46.79387],"type":"Point"},"type":"Feature","properties":{"typePOI":"Arène","title":"Jet Cormanon"}},{"geometry":{"coordinates":[7.135019,46.780295],"type":"Point"},"type":"Feature","properties":{"typePOI":"Arène","title":"Wertvoller Waldboden"}},{"geometry":{"coordinates":[6.993036,46.623832],"type":"Point"},"type":"Feature","properties":{"typePOI":"Arène","title":"Prayshop Vaulruz"}},{"geometry":{"coordinates":[7.088569,46.780643],"type":"Point"},"type":"Feature","properties":{"typePOI":"Arène","title":"La Fontaine Du Troll"}},{"geometry":{"coordinates":[7.319912,46.888626],"type":"Point"},"type":"Feature","properties":{"typePOI":"Arène","title":"Pole at the Train Station Flamatt"}},{"geometry":{"coordinates":[7.124325,46.874174],"type":"Point"},"type":"Feature","properties":{"typePOI":"Arène","title":"Saut Alternatif"}},{"geometry":{"coordinates":[7.150501,46.802119],"type":"Point"},"type":"Feature","properties":{"typePOI":"Arène","title":"Ancienne Gare Fribourg \/ Freiburg"}},{"geometry":{"coordinates":[7.063955,46.611443],"type":"Point"},"type":"Feature","properties":{"typePOI":"Arène","title":"Onlive & Prismus"}},{"geometry":{"coordinates":[7.078397,46.777757],"type":"Point"},"type":"Feature","properties":{"typePOI":"Arène","title":"Cia Le Mini Ours"}},{"geometry":{"coordinates":[6.776518,46.81208],"type":"Point"},"type":"Feature","properties":{"typePOI":"Arène","title":"Infotafel Biodiversität"}},{"geometry":{"coordinates":[6.87867,46.527682],"type":"Point"},"type":"Feature","properties":{"typePOI":"Arène","title":"Église Du Village"}},{"geometry":{"coordinates":[7.123578,46.800694],"type":"Point"},"type":"Feature","properties":{"typePOI":"Arène","title":"Spinning Jesa"}},{"geometry":{"coordinates":[7.257805,46.86101],"type":"Point"},"type":"Feature","properties":{"typePOI":"Arène","title":"Containart"}},{"geometry":{"coordinates":[6.852846,46.510908],"type":"Point"},"type":"Feature","properties":{"typePOI":"Arène","title":"Chapelle d'Attalens "}},{"geometry":{"coordinates":[7.048079,46.693512],"type":"Point"},"type":"Feature","properties":{"typePOI":"Arène","title":"Réplique De La Tourelle Du Gibloux "}},{"geometry":{"coordinates":[7.159844,46.805843],"type":"Point"},"type":"Feature","properties":{"typePOI":"Arène","title":"Fontaine des Escaliers"}},{"geometry":{"coordinates":[6.976519,46.785937],"type":"Point"},"type":"Feature","properties":{"typePOI":"Arène","title":"Place de jeu le relais du marronnier"}},{"geometry":{"coordinates":[7.129943,46.818076],"type":"Point"},"type":"Feature","properties":{"typePOI":"Arène","title":"Le Cube Transpercé"}},{"geometry":{"coordinates":[6.847646,46.62314],"type":"Point"},"type":"Feature","properties":{"typePOI":"Arène","title":"Croix de chemin vers l'ancienne école"}},{"geometry":{"coordinates":[6.77552,46.814057],"type":"Point"},"type":"Feature","properties":{"typePOI":"Arène","title":"Holzsteg am Seeufer"}},{"geometry":{"coordinates":[7.064138,46.612486],"type":"Point"},"type":"Feature","properties":{"typePOI":"Arène","title":"Fontaine Rue De La Paix"}},{"geometry":{"coordinates":[6.929389,46.902476],"type":"Point"},"type":"Feature","properties":{"typePOI":"Arène","title":"Village Lacustre"}},{"geometry":{"coordinates":[7.085188,46.565379],"type":"Point"},"type":"Feature","properties":{"typePOI":"Arène","title":"Gare D'enney"}},{"geometry":{"coordinates":[7.235839,46.851415],"type":"Point"},"type":"Feature","properties":{"typePOI":"Arène","title":"Dälihubel 706,6m"}},{"geometry":{"coordinates":[7.052898,46.707773],"type":"Point"},"type":"Feature","properties":{"typePOI":"Arène","title":"Eglise Vuisternens-en-Ogoz"}},{"geometry":{"coordinates":[6.939063,46.629137],"type":"Point"},"type":"Feature","properties":{"typePOI":"Arène","title":"Eglise De La Joux"}},{"geometry":{"coordinates":[7.199073,46.974725],"type":"Point"},"type":"Feature","properties":{"typePOI":"Arène","title":"Cows Statue"}},{"geometry":{"coordinates":[6.931048,46.607779],"type":"Point"},"type":"Feature","properties":{"typePOI":"Arène","title":"Le Sentier - Le hiboux"}},{"geometry":{"coordinates":[7.174017,46.845466],"type":"Point"},"type":"Feature","properties":{"typePOI":"Arène","title":"Aussichtsturm Düdinger Moos"}},{"geometry":{"coordinates":[7.175214,46.913588],"type":"Point"},"type":"Feature","properties":{"typePOI":"Arène","title":"Baumtelefon"}},{"geometry":{"coordinates":[7.074837,46.54212],"type":"Point"},"type":"Feature","properties":{"typePOI":"Arène","title":"Jc"}},{"geometry":{"coordinates":[7.17775,46.751109],"type":"Point"},"type":"Feature","properties":{"typePOI":"Arène","title":"église praroman"}},{"geometry":{"coordinates":[7.154763,46.794361],"type":"Point"},"type":"Feature","properties":{"typePOI":"Arène","title":"Chocolat Villars"}},{"geometry":{"coordinates":[7.165112,46.803523],"type":"Point"},"type":"Feature","properties":{"typePOI":"Arène","title":"La Lampe Du Génie"}},{"geometry":{"coordinates":[7.015634,46.666979],"type":"Point"},"type":"Feature","properties":{"typePOI":"Arène","title":"Le Pèlerin "}},{"geometry":{"coordinates":[7.108527,46.820963],"type":"Point"},"type":"Feature","properties":{"typePOI":"Arène","title":"Blocs Épars"}},{"geometry":{"coordinates":[7.183399,46.805372],"type":"Point"},"type":"Feature","properties":{"typePOI":"Arène","title":"Kroko"}},{"geometry":{"coordinates":[7.096242,46.784599],"type":"Point"},"type":"Feature","properties":{"typePOI":"Arène","title":"Croix de la Forge "}},{"geometry":{"coordinates":[7.152171,46.800089],"type":"Point"},"type":"Feature","properties":{"typePOI":"Arène","title":"Chute D'un météorite"}},{"geometry":{"coordinates":[6.848865,46.851254],"type":"Point"},"type":"Feature","properties":{"typePOI":"Arène","title":"Château d'Estavayer-Le-Lac"}},{"geometry":{"coordinates":[7.28238,46.659647],"type":"Point"},"type":"Feature","properties":{"typePOI":"Arène","title":"Schwarzsee Holzkuh"}},{"geometry":{"coordinates":[7.015279,46.865007],"type":"Point"},"type":"Feature","properties":{"typePOI":"Arène","title":"Ecusson"}},{"geometry":{"coordinates":[6.96509,46.676485],"type":"Point"},"type":"Feature","properties":{"typePOI":"Arène","title":"La Croix de la Coline"}},{"geometry":{"coordinates":[7.136866,46.900428],"type":"Point"},"type":"Feature","properties":{"typePOI":"Arène","title":"Spielplatz Cressier"}},{"geometry":{"coordinates":[7.133455,46.897281],"type":"Point"},"type":"Feature","properties":{"typePOI":"Arène","title":"Croix en pierre de 1933"}},{"geometry":{"coordinates":[6.911134,46.687599],"type":"Point"},"type":"Feature","properties":{"typePOI":"Arène","title":"Structure métallique"}},{"geometry":{"coordinates":[7.127016,46.797014],"type":"Point"},"type":"Feature","properties":{"typePOI":"Arène","title":"Sculpture Faon"}},{"geometry":{"coordinates":[7.050467,46.769413],"type":"Point"},"type":"Feature","properties":{"typePOI":"Arène","title":"Agilité"}},{"geometry":{"coordinates":[7.109097,46.812408],"type":"Point"},"type":"Feature","properties":{"typePOI":"Arène","title":"Lunettes De Soleil"}},{"geometry":{"coordinates":[7.217682,46.815245],"type":"Point"},"type":"Feature","properties":{"typePOI":"Arène","title":"Kapelle St. Jakob Tafers"}},{"geometry":{"coordinates":[7.231163,46.844676],"type":"Point"},"type":"Feature","properties":{"typePOI":"Arène","title":"Stonewall of Berg"}},{"geometry":{"coordinates":[7.026829,46.724809],"type":"Point"},"type":"Feature","properties":{"typePOI":"Arène","title":"Mission 1925"}},{"geometry":{"coordinates":[7.120467,46.817023],"type":"Point"},"type":"Feature","properties":{"typePOI":"Arène","title":"Fresque Corbeau"}},{"geometry":{"coordinates":[6.844854,46.848691],"type":"Point"},"type":"Feature","properties":{"typePOI":"Arène","title":"Tour De La Trahison"}},{"geometry":{"coordinates":[6.852234,46.845919],"type":"Point"},"type":"Feature","properties":{"typePOI":"Arène","title":"Chapelle Du Huit"}},{"geometry":{"coordinates":[6.914397,46.609655],"type":"Point"},"type":"Feature","properties":{"typePOI":"Arène","title":"Croix Jésus Du Crêt "}},{"geometry":{"coordinates":[7.139565,46.804434],"type":"Point"},"type":"Feature","properties":{"typePOI":"Arène","title":"Villa Beata"}},{"geometry":{"coordinates":[7.073007,46.538424],"type":"Point"},"type":"Feature","properties":{"typePOI":"Arène","title":"Chapelle"}},{"geometry":{"coordinates":[7.154468,46.782439],"type":"Point"},"type":"Feature","properties":{"typePOI":"Arène","title":"Le chateau des enfants"}},{"geometry":{"coordinates":[7.209159,46.973161],"type":"Point"},"type":"Feature","properties":{"typePOI":"Arène","title":"Bruder Klaus Kirche"}},{"geometry":{"coordinates":[7.248237,46.855202],"type":"Point"},"type":"Feature","properties":{"typePOI":"Arène","title":"Wegkreuz Im Zentrum"}},{"geometry":{"coordinates":[7.102365,46.56523],"type":"Point"},"type":"Feature","properties":{"typePOI":"Arène","title":"Fonfontain"}},{"geometry":{"coordinates":[7.095817,46.76491],"type":"Point"},"type":"Feature","properties":{"typePOI":"Arène","title":"Le Randonneur"}},{"geometry":{"coordinates":[6.929869,46.655751],"type":"Point"},"type":"Feature","properties":{"typePOI":"Arène","title":"Le Totem"}},{"geometry":{"coordinates":[7.094776,46.920185],"type":"Point"},"type":"Feature","properties":{"typePOI":"Arène","title":"Pfad des Lebens"}},{"geometry":{"coordinates":[7.054375,46.61607],"type":"Point"},"type":"Feature","properties":{"typePOI":"Arène","title":"Centre Culturel Ebullition"}},{"geometry":{"coordinates":[7.156981,46.787845],"type":"Point"},"type":"Feature","properties":{"typePOI":"Arène","title":"Bienvenue Au Sentier Botanique"}},{"geometry":{"coordinates":[7.069687,46.951122],"type":"Point"},"type":"Feature","properties":{"typePOI":"Arène","title":"Laiterie De Lugnorre"}},{"geometry":{"coordinates":[7.273884,46.663005],"type":"Point"},"type":"Feature","properties":{"typePOI":"Arène","title":"Schwarzsee Muggi"}},{"geometry":{"coordinates":[7.171812,46.89264],"type":"Point"},"type":"Feature","properties":{"typePOI":"Arène","title":"Kirche St. Germain"}},{"geometry":{"coordinates":[7.253829,46.862962],"type":"Point"},"type":"Feature","properties":{"typePOI":"Arène","title":"Railway Station Schmitten"}},{"geometry":{"coordinates":[7.145209,46.899568],"type":"Point"},"type":"Feature","properties":{"typePOI":"Arène","title":"Office de Poste"}},{"geometry":{"coordinates":[7.124009,46.876486],"type":"Point"},"type":"Feature","properties":{"typePOI":"Arène","title":"Slalom"}},{"geometry":{"coordinates":[6.846081,46.85292],"type":"Point"},"type":"Feature","properties":{"typePOI":"Arène","title":"Fontaine Poisson Estavayer"}},{"geometry":{"coordinates":[6.918305,46.642952],"type":"Point"},"type":"Feature","properties":{"typePOI":"Arène","title":"Croix De Fer Forgé Marquant L'entrée Du Village"}},{"geometry":{"coordinates":[7.134009,46.726616],"type":"Point"},"type":"Feature","properties":{"typePOI":"Arène","title":"Terre d'ELLES"}},{"geometry":{"coordinates":[7.116559,46.789998],"type":"Point"},"type":"Feature","properties":{"typePOI":"Arène","title":"Mémorial De L'abeille"}},{"geometry":{"coordinates":[7.275305,46.874495],"type":"Point"},"type":"Feature","properties":{"typePOI":"Arène","title":"Kirche Wünnewil"}},{"geometry":{"coordinates":[7.137579,46.726938],"type":"Point"},"type":"Feature","properties":{"typePOI":"Arène","title":"Old Fountain"}},{"geometry":{"coordinates":[6.782115,46.81834],"type":"Point"},"type":"Feature","properties":{"typePOI":"Arène","title":"Plage de Cheyres"}},{"geometry":{"coordinates":[7.057213,46.59684],"type":"Point"},"type":"Feature","properties":{"typePOI":"Arène","title":"Bienvenue Au Paquier"}},{"geometry":{"coordinates":[7.264015,46.802189],"type":"Point"},"type":"Feature","properties":{"typePOI":"Arène","title":"Vitaparcours Posten 3"}},{"geometry":{"coordinates":[6.868743,46.816117],"type":"Point"},"type":"Feature","properties":{"typePOI":"Arène","title":"Eglise De Montet Broye"}},{"geometry":{"coordinates":[7.260429,46.82646],"type":"Point"},"type":"Feature","properties":{"typePOI":"Arène","title":"Spielplatz Burgbühl"}},{"geometry":{"coordinates":[7.044955,46.488189],"type":"Point"},"type":"Feature","properties":{"typePOI":"Arène","title":"Place du vieux chalet"}},{"geometry":{"coordinates":[6.823163,46.835165],"type":"Point"},"type":"Feature","properties":{"typePOI":"Arène","title":"Petite Fontaine de Font"}},{"geometry":{"coordinates":[7.255008,46.860586],"type":"Point"},"type":"Feature","properties":{"typePOI":"Arène","title":"Vitaparcour Posten 3"}},{"geometry":{"coordinates":[7.099623,46.838178],"type":"Point"},"type":"Feature","properties":{"typePOI":"Arène","title":"Place de jeu du Sarrazin"}},{"geometry":{"coordinates":[6.835845,46.634157],"type":"Point"},"type":"Feature","properties":{"typePOI":"Arène","title":"Ursy Fountain"}},{"geometry":{"coordinates":[7.104719,46.789197],"type":"Point"},"type":"Feature","properties":{"typePOI":"Arène","title":"L'Enfant de la botte"}},{"geometry":{"coordinates":[6.843677,46.833553],"type":"Point"},"type":"Feature","properties":{"typePOI":"Arène","title":"Place de jeux de Lully"}},{"geometry":{"coordinates":[7.266318,46.754931],"type":"Point"},"type":"Feature","properties":{"typePOI":"Arène","title":"Buechechäppeli Brünisried"}},{"geometry":{"coordinates":[7.308662,46.887201],"type":"Point"},"type":"Feature","properties":{"typePOI":"Arène","title":"Church Flamatt"}},{"geometry":{"coordinates":[7.143936,46.809799],"type":"Point"},"type":"Feature","properties":{"typePOI":"Arène","title":"Mémoire De Gustave Courvet (1817-1877)"}},{"geometry":{"coordinates":[6.871346,46.805209],"type":"Point"},"type":"Feature","properties":{"typePOI":"Arène","title":"Fontaine De Vesin 1988"}},{"geometry":{"coordinates":[7.284632,46.595356],"type":"Point"},"type":"Feature","properties":{"typePOI":"Arène","title":"Bergstation Musersbergli"}},{"geometry":{"coordinates":[7.282317,46.811243],"type":"Point"},"type":"Feature","properties":{"typePOI":"Arène","title":"Kapelle Obermonten"}},{"geometry":{"coordinates":[7.284097,46.631912],"type":"Point"},"type":"Feature","properties":{"typePOI":"Arène","title":"Arthur Bertschy 1922"}},{"geometry":{"coordinates":[7.128925,46.70717],"type":"Point"},"type":"Feature","properties":{"typePOI":"Arène","title":"Soirée"}},{"geometry":{"coordinates":[7.153557,46.79594],"type":"Point"},"type":"Feature","properties":{"typePOI":"Arène","title":"industrial faces"}},{"geometry":{"coordinates":[6.788346,46.821386],"type":"Point"},"type":"Feature","properties":{"typePOI":"Arène","title":"Cheyres - La Lagune"}},{"geometry":{"coordinates":[7.186974,46.744236],"type":"Point"},"type":"Feature","properties":{"typePOI":"Arène","title":"Mission 1957"}},{"geometry":{"coordinates":[7.141164,46.796641],"type":"Point"},"type":"Feature","properties":{"typePOI":"Arène","title":"Cité de Beaumont"}},{"geometry":{"coordinates":[7.114907,46.767994],"type":"Point"},"type":"Feature","properties":{"typePOI":"Arène","title":"Echassier De Fer"}},{"geometry":{"coordinates":[7.084243,46.590087],"type":"Point"},"type":"Feature","properties":{"typePOI":"Arène","title":"La Vache Rouge"}},{"geometry":{"coordinates":[7.097993,46.833206],"type":"Point"},"type":"Feature","properties":{"typePOI":"Arène","title":"Zurich parcoursvita 6"}},{"geometry":{"coordinates":[7.003658,46.757723],"type":"Point"},"type":"Feature","properties":{"typePOI":"Arène","title":"Auberge St Claude"}},{"geometry":{"coordinates":[6.848708,46.509226],"type":"Point"},"type":"Feature","properties":{"typePOI":"Arène","title":"Hôtel de Ville "}},{"geometry":{"coordinates":[7.195968,46.976281],"type":"Point"},"type":"Feature","properties":{"typePOI":"Arène","title":"Kirche Kerzers"}},{"geometry":{"coordinates":[7.291322,46.839451],"type":"Point"},"type":"Feature","properties":{"typePOI":"Arène","title":"Wiler vor Holz - Kirche"}},{"geometry":{"coordinates":[7.275653,46.609911],"type":"Point"},"type":"Feature","properties":{"typePOI":"Arène","title":"Hivernal"}},{"geometry":{"coordinates":[7.123777,46.692588],"type":"Point"},"type":"Feature","properties":{"typePOI":"Arène","title":"Sentier du lac"}},{"geometry":{"coordinates":[7.086168,46.687175],"type":"Point"},"type":"Feature","properties":{"typePOI":"Arène","title":"Église  Avry Devant Pont"}},{"geometry":{"coordinates":[7.154936,46.733128],"type":"Point"},"type":"Feature","properties":{"typePOI":"Arène","title":"Benediction"}},{"geometry":{"coordinates":[7.06196,46.782421],"type":"Point"},"type":"Feature","properties":{"typePOI":"Arène","title":"Gare de Rosé"}},{"geometry":{"coordinates":[7.055283,46.617071],"type":"Point"},"type":"Feature","properties":{"typePOI":"Arène","title":"Poste Bulle Gare"}},{"geometry":{"coordinates":[6.99349,46.81048],"type":"Point"},"type":"Feature","properties":{"typePOI":"Arène","title":"Dragons"}},{"geometry":{"coordinates":[7.080122,46.957214],"type":"Point"},"type":"Feature","properties":{"typePOI":"Arène","title":"Figure 3B-89"}},{"geometry":{"coordinates":[7.157817,46.810618],"type":"Point"},"type":"Feature","properties":{"typePOI":"Arène","title":"Fontaine de Fleurs"}},{"geometry":{"coordinates":[7.124116,46.800647],"type":"Point"},"type":"Feature","properties":{"typePOI":"Arène","title":"Vachette"}},{"geometry":{"coordinates":[7.122091,46.8697],"type":"Point"},"type":"Feature","properties":{"typePOI":"Arène","title":"Moulin Landi "}},{"geometry":{"coordinates":[7.119805,46.788764],"type":"Point"},"type":"Feature","properties":{"typePOI":"Arène","title":"Le Bloc Du Platy"}},{"geometry":{"coordinates":[7.004474,46.688887],"type":"Point"},"type":"Feature","properties":{"typePOI":"Arène","title":"Fontaine de la cabane de Villargiroud"}},{"geometry":{"coordinates":[7.058498,46.626261],"type":"Point"},"type":"Feature","properties":{"typePOI":"Arène","title":"Leon Progin"}},{"geometry":{"coordinates":[7.113528,46.927605],"type":"Point"},"type":"Feature","properties":{"typePOI":"Arène","title":"Aubes Fontaine"}},{"geometry":{"coordinates":[6.886671,46.868926],"type":"Point"},"type":"Feature","properties":{"typePOI":"Arène","title":"château de la place de jeu"}},{"geometry":{"coordinates":[7.151326,46.789966],"type":"Point"},"type":"Feature","properties":{"typePOI":"Arène","title":"Refuge du Bois des Morts"}},{"geometry":{"coordinates":[7.04256,46.485815],"type":"Point"},"type":"Feature","properties":{"typePOI":"Arène","title":"Gare De Montbovon"}},{"geometry":{"coordinates":[7.141276,46.810453],"type":"Point"},"type":"Feature","properties":{"typePOI":"Arène","title":"Fontaine De L'étang"}},{"geometry":{"coordinates":[6.818492,46.616696],"type":"Point"},"type":"Feature","properties":{"typePOI":"Arène","title":"Croix Chrétienne"}},{"geometry":{"coordinates":[7.141863,46.796608],"type":"Point"},"type":"Feature","properties":{"typePOI":"Arène","title":"Poste de Beaumont"}},{"geometry":{"coordinates":[7.08373,46.947188],"type":"Point"},"type":"Feature","properties":{"typePOI":"Arène","title":"3 Minutes Pour Un Banc"}},{"geometry":{"coordinates":[7.032995,46.750708],"type":"Point"},"type":"Feature","properties":{"typePOI":"Arène","title":"Église De Cottens "}},{"geometry":{"coordinates":[7.086613,46.573404],"type":"Point"},"type":"Feature","properties":{"typePOI":"Arène","title":"Gare Estavannens"}},{"geometry":{"coordinates":[7.099915,46.786574],"type":"Point"},"type":"Feature","properties":{"typePOI":"Arène","title":"Jet D'eau Du Lac De Matran"}},{"geometry":{"coordinates":[7.160297,46.808093],"type":"Point"},"type":"Feature","properties":{"typePOI":"Arène","title":"La Grande Lune"}},{"geometry":{"coordinates":[7.075578,46.949771],"type":"Point"},"type":"Feature","properties":{"typePOI":"Arène","title":"Wooden Signpost"}},{"geometry":{"coordinates":[7.164317,46.914778],"type":"Point"},"type":"Feature","properties":{"typePOI":"Arène","title":"Galmhütten Wegweiser"}},{"geometry":{"coordinates":[7.141126,46.809712],"type":"Point"},"type":"Feature","properties":{"typePOI":"Arène","title":"Terrain de Foot du Jura"}},{"geometry":{"coordinates":[7.200396,46.844431],"type":"Point"},"type":"Feature","properties":{"typePOI":"Arène","title":"Eisenplastik von Angéloz"}},{"geometry":{"coordinates":[6.91213,46.638358],"type":"Point"},"type":"Feature","properties":{"typePOI":"Arène","title":"Eglise De Sommentier"}},{"geometry":{"coordinates":[6.912802,46.693653],"type":"Point"},"type":"Feature","properties":{"typePOI":"Arène","title":"Cité Du Vitrail"}},{"geometry":{"coordinates":[7.101704,46.565845],"type":"Point"},"type":"Feature","properties":{"typePOI":"Arène","title":"Église Estavannens"}},{"geometry":{"coordinates":[7.218381,46.997187],"type":"Point"},"type":"Feature","properties":{"typePOI":"Arène","title":"Der Wald ist für alle da!"}},{"geometry":{"coordinates":[6.853264,46.849948],"type":"Point"},"type":"Feature","properties":{"typePOI":"Arène","title":"Place de jeux Champ de lune"}},{"geometry":{"coordinates":[7.100422,46.560295],"type":"Point"},"type":"Feature","properties":{"typePOI":"Arène","title":" L'histoire De Bas-intyamon Et Estavannens"}},{"geometry":{"coordinates":[7.133708,46.800523],"type":"Point"},"type":"Feature","properties":{"typePOI":"Arène","title":"Place De Jeu Des 3 Immeubles "}},{"geometry":{"coordinates":[6.807943,46.825657],"type":"Point"},"type":"Feature","properties":{"typePOI":"Arène","title":"Brunnen Châbles"}},{"geometry":{"coordinates":[7.138253,46.818634],"type":"Point"},"type":"Feature","properties":{"typePOI":"Arène","title":"Pyramide"}},{"geometry":{"coordinates":[7.138291,46.900876],"type":"Point"},"type":"Feature","properties":{"typePOI":"Arène","title":"La Croix De Cressier "}},{"geometry":{"coordinates":[7.126515,46.817613],"type":"Point"},"type":"Feature","properties":{"typePOI":"Arène","title":"Coqs Du Toit"}},{"geometry":{"coordinates":[7.210855,46.99862],"type":"Point"},"type":"Feature","properties":{"typePOI":"Arène","title":"Tschuttiplatz Fräschels"}},{"geometry":{"coordinates":[6.924531,46.648399],"type":"Point"},"type":"Feature","properties":{"typePOI":"Arène","title":"Stade De Foot Vuisternens-devant-Romont "}},{"geometry":{"coordinates":[7.069779,46.851467],"type":"Point"},"type":"Feature","properties":{"typePOI":"Arène","title":"Chapelle Misery"}},{"geometry":{"coordinates":[7.267762,46.822005],"type":"Point"},"type":"Feature","properties":{"typePOI":"Arène","title":"Kreuz St. Antoni"}},{"geometry":{"coordinates":[6.927468,46.700864],"type":"Point"},"type":"Feature","properties":{"typePOI":"Arène","title":"Couvent De La Fille-Dieu"}},{"geometry":{"coordinates":[7.012379,46.866541],"type":"Point"},"type":"Feature","properties":{"typePOI":"Arène","title":"Mission 1957"}},{"geometry":{"coordinates":[7.134301,46.940286],"type":"Point"},"type":"Feature","properties":{"typePOI":"Arène","title":"Einmal Drehen Bitte"}},{"geometry":{"coordinates":[6.83657,46.65297],"type":"Point"},"type":"Feature","properties":{"typePOI":"Arène","title":"Croix De Morlens"}},{"geometry":{"coordinates":[7.154336,46.778906],"type":"Point"},"type":"Feature","properties":{"typePOI":"Arène","title":"Administration Communale"}},{"geometry":{"coordinates":[7.300584,46.827534],"type":"Point"},"type":"Feature","properties":{"typePOI":"Arène","title":"Kirche Heitenried"}},{"geometry":{"coordinates":[7.258326,46.819862],"type":"Point"},"type":"Feature","properties":{"typePOI":"Arène","title":"Kath. Kirche St.Antoni"}},{"geometry":{"coordinates":[7.020176,46.618021],"type":"Point"},"type":"Feature","properties":{"typePOI":"Arène","title":"Gare De Vuadens Sud"}},{"geometry":{"coordinates":[7.29937,46.828089],"type":"Point"},"type":"Feature","properties":{"typePOI":"Arène","title":"Schloss"}},{"geometry":{"coordinates":[7.161412,46.77677],"type":"Point"},"type":"Feature","properties":{"typePOI":"Arène","title":"Petite Chapelle Marly"}},{"geometry":{"coordinates":[7.12224,46.924265],"type":"Point"},"type":"Feature","properties":{"typePOI":"Arène","title":"Skater Grafitti"}},{"geometry":{"coordinates":[6.946517,46.747887],"type":"Point"},"type":"Feature","properties":{"typePOI":"Arène","title":"Place de jeu"}},{"geometry":{"coordinates":[7.149713,46.900152],"type":"Point"},"type":"Feature","properties":{"typePOI":"Arène","title":"Gare Cressier Fr"}},{"geometry":{"coordinates":[6.980714,46.887179],"type":"Point"},"type":"Feature","properties":{"typePOI":"Arène","title":"Parc du Baratan"}},{"geometry":{"coordinates":[7.100863,46.856408],"type":"Point"},"type":"Feature","properties":{"typePOI":"Arène","title":"Place de jeu Cournillens"}},{"geometry":{"coordinates":[7.191012,46.96939],"type":"Point"},"type":"Feature","properties":{"typePOI":"Arène","title":"Men of Stone"}},{"geometry":{"coordinates":[6.881069,46.65821],"type":"Point"},"type":"Feature","properties":{"typePOI":"Arène","title":"Notre Dame De Lourdes"}},{"geometry":{"coordinates":[7.125398,46.81671],"type":"Point"},"type":"Feature","properties":{"typePOI":"Arène","title":"Givisiez"}},{"geometry":{"coordinates":[7.081243,46.742139],"type":"Point"},"type":"Feature","properties":{"typePOI":"Arène","title":"Fontaine fleurie"}},{"geometry":{"coordinates":[7.211051,46.816952],"type":"Point"},"type":"Feature","properties":{"typePOI":"Arène","title":"Rutsche mit Turm"}},{"geometry":{"coordinates":[7.216217,46.814067],"type":"Point"},"type":"Feature","properties":{"typePOI":"Arène","title":"Brunnen Amthaus Tafers"}},{"geometry":{"coordinates":[7.093851,46.964048],"type":"Point"},"type":"Feature","properties":{"typePOI":"Arène","title":"Bat G21"}},{"geometry":{"coordinates":[7.125929,46.861852],"type":"Point"},"type":"Feature","properties":{"typePOI":"Arène","title":"Place De Jeu Du Postillon"}},{"geometry":{"coordinates":[7.325935,46.873812],"type":"Point"},"type":"Feature","properties":{"typePOI":"Arène","title":"Friedhof"}},{"geometry":{"coordinates":[6.901477,46.527225],"type":"Point"},"type":"Feature","properties":{"typePOI":"Arène","title":"Le Cheval Blanc"}},{"geometry":{"coordinates":[7.121986,46.746539],"type":"Point"},"type":"Feature","properties":{"typePOI":"Arène","title":"Cloche D'Arconciel"}},{"geometry":{"coordinates":[6.892589,46.814747],"type":"Point"},"type":"Feature","properties":{"typePOI":"Arène","title":"Fontaine Du Sauveur"}},{"geometry":{"coordinates":[6.845361,46.846486],"type":"Point"},"type":"Feature","properties":{"typePOI":"Arène","title":"Mural Artichoke"}},{"geometry":{"coordinates":[7.111707,46.920607],"type":"Point"},"type":"Feature","properties":{"typePOI":"Arène","title":"Green Ball"}},{"geometry":{"coordinates":[7.251879,46.735479],"type":"Point"},"type":"Feature","properties":{"typePOI":"Arène","title":"Kirche"}},{"geometry":{"coordinates":[7.084675,46.538278],"type":"Point"},"type":"Feature","properties":{"typePOI":"Arène","title":"Tete De Lion"}},{"geometry":{"coordinates":[7.102,46.592635],"type":"Point"},"type":"Feature","properties":{"typePOI":"Arène","title":"Notre Dame des Marche"}},{"geometry":{"coordinates":[7.180638,46.809261],"type":"Point"},"type":"Feature","properties":{"typePOI":"Arène","title":"Gedenkkreuz 1548"}},{"geometry":{"coordinates":[7.10325,46.956104],"type":"Point"},"type":"Feature","properties":{"typePOI":"Arène","title":"Statuettes du Molard"}},{"geometry":{"coordinates":[7.162655,46.821086],"type":"Point"},"type":"Feature","properties":{"typePOI":"Arène","title":"Aux 4 Vents "}},{"geometry":{"coordinates":[7.179093,46.895192],"type":"Point"},"type":"Feature","properties":{"typePOI":"Arène","title":"Kirche"}},{"geometry":{"coordinates":[6.790713,46.818026],"type":"Point"},"type":"Feature","properties":{"typePOI":"Arène","title":"Chasselas Cheyres"}},{"geometry":{"coordinates":[7.194866,46.933032],"type":"Point"},"type":"Feature","properties":{"typePOI":"Arène","title":"Hydrant Junior"}},{"geometry":{"coordinates":[7.274873,46.611515],"type":"Point"},"type":"Feature","properties":{"typePOI":"Arène","title":"Stone Spiritual"}},{"geometry":{"coordinates":[6.798328,46.817816],"type":"Point"},"type":"Feature","properties":{"typePOI":"Arène","title":"Kreuzweg Posten VI"}},{"geometry":{"coordinates":[6.789723,46.812438],"type":"Point"},"type":"Feature","properties":{"typePOI":"Arène","title":"Kreuz am Waldrand"}},{"geometry":{"coordinates":[6.858803,46.844384],"type":"Point"},"type":"Feature","properties":{"typePOI":"Arène","title":"château D'eau"}},{"geometry":{"coordinates":[7.270648,46.816978],"type":"Point"},"type":"Feature","properties":{"typePOI":"Arène","title":"Obermonten Pilgerweg 7"}},{"geometry":{"coordinates":[7.070568,46.787741],"type":"Point"},"type":"Feature","properties":{"typePOI":"Arène","title":"Église d'Avry"}},{"geometry":{"coordinates":[7.024772,46.567594],"type":"Point"},"type":"Feature","properties":{"typePOI":"Arène","title":"Fontaine De La Cabane Des Clés"}},{"geometry":{"coordinates":[7.060331,46.668935],"type":"Point"},"type":"Feature","properties":{"typePOI":"Arène","title":"Eglise de Sorens"}},{"geometry":{"coordinates":[7.090868,46.920436],"type":"Point"},"type":"Feature","properties":{"typePOI":"Arène","title":"Vitaparcours Greng 6"}},{"geometry":{"coordinates":[7.05796,46.617641],"type":"Point"},"type":"Feature","properties":{"typePOI":"Arène","title":"Château"}},{"geometry":{"coordinates":[7.115934,46.927929],"type":"Point"},"type":"Feature","properties":{"typePOI":"Arène","title":"La Ferme"}},{"geometry":{"coordinates":[7.083596,46.566291],"type":"Point"},"type":"Feature","properties":{"typePOI":"Arène","title":"Monument Historique Catholique"}},{"geometry":{"coordinates":[7.002903,46.706205],"type":"Point"},"type":"Feature","properties":{"typePOI":"Arène","title":"Little Blue Man"}},{"geometry":{"coordinates":[7.095373,46.957022],"type":"Point"},"type":"Feature","properties":{"typePOI":"Arène","title":"Kleiner Fassbrunnen - Mont Vully"}},{"geometry":{"coordinates":[7.059421,46.624498],"type":"Point"},"type":"Feature","properties":{"typePOI":"Arène","title":"Aire de jeux JAMADU"}},{"geometry":{"coordinates":[7.090685,46.749295],"type":"Point"},"type":"Feature","properties":{"typePOI":"Arène","title":"Croix De La Tuffière"}},{"geometry":{"coordinates":[7.117319,46.86414],"type":"Point"},"type":"Feature","properties":{"typePOI":"Arène","title":"Place De Jeu De La Buvette Du Terrain De Foot"}},{"geometry":{"coordinates":[7.073634,46.730179],"type":"Point"},"type":"Feature","properties":{"typePOI":"Arène","title":"Place de jeu de Farvagny-le-petit"}},{"geometry":{"coordinates":[7.271189,46.801681],"type":"Point"},"type":"Feature","properties":{"typePOI":"Arène","title":"Obermonten Pilgerweg VIII"}},{"geometry":{"coordinates":[7.173524,46.808693],"type":"Point"},"type":"Feature","properties":{"typePOI":"Arène","title":"Place de jeu - Route Mon-Repos"}},{"geometry":{"coordinates":[7.051601,46.815335],"type":"Point"},"type":"Feature","properties":{"typePOI":"Arène","title":"Mission 1935"}},{"geometry":{"coordinates":[7.009062,46.873069],"type":"Point"},"type":"Feature","properties":{"typePOI":"Arène","title":"Contact Statue"}},{"geometry":{"coordinates":[7.0415,46.684753],"type":"Point"},"type":"Feature","properties":{"typePOI":"Arène","title":"Sculpture du Guizmobo"}},{"geometry":{"coordinates":[7.088413,46.865643],"type":"Point"},"type":"Feature","properties":{"typePOI":"Arène","title":"Petite Chapelle De Dieu "}},{"geometry":{"coordinates":[7.15859,46.796932],"type":"Point"},"type":"Feature","properties":{"typePOI":"Arène","title":"Humans Nº1"}},{"geometry":{"coordinates":[7.045292,46.727463],"type":"Point"},"type":"Feature","properties":{"typePOI":"Arène","title":"Croix du Gibloux"}},{"geometry":{"coordinates":[7.053291,46.767575],"type":"Point"},"type":"Feature","properties":{"typePOI":"Arène","title":"echelles"}},{"geometry":{"coordinates":[7.052946,46.726776],"type":"Point"},"type":"Feature","properties":{"typePOI":"Arène","title":"croix shino"}},{"geometry":{"coordinates":[6.936216,46.751663],"type":"Point"},"type":"Feature","properties":{"typePOI":"Arène","title":"Wooden Faces"}},{"geometry":{"coordinates":[7.12387,46.789646],"type":"Point"},"type":"Feature","properties":{"typePOI":"Arène","title":"Les Osselets Du Brochet"}},{"geometry":{"coordinates":[7.016147,46.667324],"type":"Point"},"type":"Feature","properties":{"typePOI":"Arène","title":"Les Chaînes De Bois"}},{"geometry":{"coordinates":[6.786676,46.81649],"type":"Point"},"type":"Feature","properties":{"typePOI":"Arène","title":"Turnaround Ford"}},{"geometry":{"coordinates":[6.992878,46.773633],"type":"Point"},"type":"Feature","properties":{"typePOI":"Arène","title":"Église De Corserey "}},{"geometry":{"coordinates":[7.25097,46.854312],"type":"Point"},"type":"Feature","properties":{"typePOI":"Arène","title":"Frog2Faces"}},{"geometry":{"coordinates":[7.189637,46.848652],"type":"Point"},"type":"Feature","properties":{"typePOI":"Arène","title":"Hauptstrasse 34"}},{"geometry":{"coordinates":[7.039109,46.614801],"type":"Point"},"type":"Feature","properties":{"typePOI":"Arène","title":"Spielplatz de la pala..."}},{"geometry":{"coordinates":[7.139043,46.800381],"type":"Point"},"type":"Feature","properties":{"typePOI":"Arène","title":"Le Baccara"}},{"geometry":{"coordinates":[7.18984,46.850954],"type":"Point"},"type":"Feature","properties":{"typePOI":"Arène","title":"Bahnhof Düdingen"}},{"geometry":{"coordinates":[7.061146,46.641565],"type":"Point"},"type":"Feature","properties":{"typePOI":"Arène","title":"Eglise De Riaz"}},{"geometry":{"coordinates":[7.165857,46.618635],"type":"Point"},"type":"Feature","properties":{"typePOI":"Arène","title":" Charmey post"}},{"geometry":{"coordinates":[7.085507,46.687273],"type":"Point"},"type":"Feature","properties":{"typePOI":"Arène","title":"Le bassin 1989"}},{"geometry":{"coordinates":[6.847592,46.50803],"type":"Point"},"type":"Feature","properties":{"typePOI":"Arène","title":"Château d'Attalens"}},{"geometry":{"coordinates":[6.839238,46.852387],"type":"Point"},"type":"Feature","properties":{"typePOI":"Arène","title":"Nova Friburgo"}},{"geometry":{"coordinates":[7.264288,46.794905],"type":"Point"},"type":"Feature","properties":{"typePOI":"Arène","title":"Spielplatz Alterswil"}},{"geometry":{"coordinates":[7.154163,46.796906],"type":"Point"},"type":"Feature","properties":{"typePOI":"Arène","title":"Paroisse du Christ-Roi"}},{"geometry":{"coordinates":[6.851891,46.622527],"type":"Point"},"type":"Feature","properties":{"typePOI":"Arène","title":"Croix Des Roches"}},{"geometry":{"coordinates":[7.086414,46.701399],"type":"Point"},