{"features":[{"geometry":{"coordinates":[7.145552,46.803168],"type":"Point"},"type":"Feature","properties":{"typePOI":"Arène","title":"École d'ingénieurs et d'architectes de Fribourg (#3200)","uuid":"École d'ingénieurs et d'architectes de Fribourg"}},{"geometry":{"coordinates":[7.025266,46.863135],"type":"Point"},"type":"Feature","properties":{"typePOI":"Arène","title":"Le mini moulin de Coppet (#3201)","uuid":"Le mini moulin de Coppet"}},{"geometry":{"coordinates":[7.174969,46.817021],"type":"Point"},"type":"Feature","properties":{"typePOI":"Arène","title":"Sculpture \"Le Castel\" (#3202)","uuid":"Sculpture \"Le Castel\""}},{"geometry":{"coordinates":[6.910233,46.687164],"type":"Point"},"type":"Feature","properties":{"typePOI":"Arène","title":"Balançoire (#3203)","uuid":"Balançoire"}},{"geometry":{"coordinates":[7.092295,46.571667],"type":"Point"},"type":"Feature","properties":{"typePOI":"Arène","title":"Parc Naturel régional (#3204)","uuid":"Parc Naturel régional"}},{"geometry":{"coordinates":[7.137614,46.821744],"type":"Point"},"type":"Feature","properties":{"typePOI":"Arène","title":"Statue En Fer Zigzag (#3205)","uuid":"Statue En Fer Zigzag"}},{"geometry":{"coordinates":[6.956303,46.91895],"type":"Point"},"type":"Feature","properties":{"typePOI":"Arène","title":"Restaurant Bateau (#3206)","uuid":"Restaurant Bateau"}},{"geometry":{"coordinates":[6.883869,46.656341],"type":"Point"},"type":"Feature","properties":{"typePOI":"Arène","title":"Ancienne Gare De Siviriez (#3207)","uuid":"Ancienne Gare De Siviriez"}},{"geometry":{"coordinates":[7.158976,46.793669],"type":"Point"},"type":"Feature","properties":{"typePOI":"Arène","title":"Sculptures \"Pont de Lumière\" (#3208)","uuid":"Sculptures \"Pont de Lumière\""}},{"geometry":{"coordinates":[7.174354,46.810324],"type":"Point"},"type":"Feature","properties":{"typePOI":"Arène","title":"St Paul (#3209)","uuid":"St Paul"}},{"geometry":{"coordinates":[7.197483,46.971865],"type":"Point"},"type":"Feature","properties":{"typePOI":"Arène","title":"Pferdeskulptur (#3210)","uuid":"Pferdeskulptur"}},{"geometry":{"coordinates":[7.061246,46.64055],"type":"Point"},"type":"Feature","properties":{"typePOI":"Arène","title":"Sculpture De La Saletta (#3211)","uuid":"Sculpture De La Saletta"}},{"geometry":{"coordinates":[6.926568,46.67948],"type":"Point"},"type":"Feature","properties":{"typePOI":"Arène","title":"Château De Mezieres \/ Musée Du Papier Peint (#3212)","uuid":"Château De Mezieres \/ Musée Du Papier Peint"}},{"geometry":{"coordinates":[7.160101,46.812894],"type":"Point"},"type":"Feature","properties":{"typePOI":"Arène","title":"Ave Maria - Memorare 1880 (#3213)","uuid":"Ave Maria - Memorare 1880"}},{"geometry":{"coordinates":[7.106877,46.752726],"type":"Point"},"type":"Feature","properties":{"typePOI":"Arène","title":"Les robins des bois (#3214)","uuid":"Les robins des bois"}},{"geometry":{"coordinates":[7.023231,46.670542],"type":"Point"},"type":"Feature","properties":{"typePOI":"Arène","title":"Titeuf Wood (#3215)","uuid":"Titeuf Wood"}},{"geometry":{"coordinates":[7.258003,46.825161],"type":"Point"},"type":"Feature","properties":{"typePOI":"Arène","title":"Felsenkapelle (#3216)","uuid":"Felsenkapelle"}},{"geometry":{"coordinates":[7.057061,46.617311],"type":"Point"},"type":"Feature","properties":{"typePOI":"Arène","title":"Fontrush (#3217)","uuid":"Fontrush"}},{"geometry":{"coordinates":[6.845808,46.843608],"type":"Point"},"type":"Feature","properties":{"typePOI":"Arène","title":"Spielplatz mit Tischtennistisch (#3218)","uuid":"Spielplatz mit Tischtennistisch"}},{"geometry":{"coordinates":[7.036124,46.785293],"type":"Point"},"type":"Feature","properties":{"typePOI":"Arène","title":"Pla ce de jeu (#3219)","uuid":"Pla ce de jeu"}},{"geometry":{"coordinates":[7.122991,46.871077],"type":"Point"},"type":"Feature","properties":{"typePOI":"Arène","title":"Fleur Solaire (#3220)","uuid":"Fleur Solaire"}},{"geometry":{"coordinates":[7.140509,46.790794],"type":"Point"},"type":"Feature","properties":{"typePOI":"Arène","title":"Hotel Du Moleson (#3221)","uuid":"Hotel Du Moleson"}},{"geometry":{"coordinates":[7.094373,46.603372],"type":"Point"},"type":"Feature","properties":{"typePOI":"Arène","title":"Bienvenue à Broc (#3222)","uuid":"Bienvenue à Broc"}},{"geometry":{"coordinates":[7.329609,46.888307],"type":"Point"},"type":"Feature","properties":{"typePOI":"Arène","title":"Safari Skulpturen (#3223)","uuid":"Safari Skulpturen"}},{"geometry":{"coordinates":[6.97349,46.700911],"type":"Point"},"type":"Feature","properties":{"typePOI":"Arène","title":"Boule De Pierre (#3224)","uuid":"Boule De Pierre"}},{"geometry":{"coordinates":[7.150928,46.813515],"type":"Point"},"type":"Feature","properties":{"typePOI":"Arène","title":"Fontaine du Levant (#3225)","uuid":"Fontaine du Levant"}},{"geometry":{"coordinates":[7.201713,46.986192],"type":"Point"},"type":"Feature","properties":{"typePOI":"Arène","title":"Papiliorama (#3226)","uuid":"Papiliorama"}},{"geometry":{"coordinates":[7.236311,46.900052],"type":"Point"},"type":"Feature","properties":{"typePOI":"Arène","title":"Laupen, Tower of Power (#3227)","uuid":"Laupen, Tower of Power"}},{"geometry":{"coordinates":[6.980174,46.818799],"type":"Point"},"type":"Feature","properties":{"typePOI":"Arène","title":"Jeu de lapin (#3228)","uuid":"Jeu de lapin"}},{"geometry":{"coordinates":[7.002702,46.700614],"type":"Point"},"type":"Feature","properties":{"typePOI":"Arène","title":"PYROTESS Cross (#3229)","uuid":"PYROTESS Cross"}},{"geometry":{"coordinates":[7.101382,46.602709],"type":"Point"},"type":"Feature","properties":{"typePOI":"Arène","title":"Fresque (#3230)","uuid":"Fresque"}},{"geometry":{"coordinates":[6.847046,46.841111],"type":"Point"},"type":"Feature","properties":{"typePOI":"Arène","title":"Petite place de jeux du Bel-Air (#3231)","uuid":"Petite place de jeux du Bel-Air"}},{"geometry":{"coordinates":[6.85006,46.51002],"type":"Point"},"type":"Feature","properties":{"typePOI":"Arène","title":"Sculpture métallique (#3232)","uuid":"Sculpture métallique"}},{"geometry":{"coordinates":[7.224104,46.983267],"type":"Point"},"type":"Feature","properties":{"typePOI":"Arène","title":"VitaParcours Nr. 4 (#3233)","uuid":"VitaParcours Nr. 4"}},{"geometry":{"coordinates":[7.082467,46.583967],"type":"Point"},"type":"Feature","properties":{"typePOI":"Arène","title":"Museum Giger (#3234)","uuid":"Museum Giger"}},{"geometry":{"coordinates":[6.846759,46.849098],"type":"Point"},"type":"Feature","properties":{"typePOI":"Arène","title":"Hommage Aux Soldats Des Deux Guerres (#3235)","uuid":"Hommage Aux Soldats Des Deux Guerres"}},{"geometry":{"coordinates":[7.060466,46.629703],"type":"Point"},"type":"Feature","properties":{"typePOI":"Arène","title":"Raboud Group (#3236)","uuid":"Raboud Group"}},{"geometry":{"coordinates":[7.200247,46.835044],"type":"Point"},"type":"Feature","properties":{"typePOI":"Arène","title":"Wegkreutz Jetschwil (#3237)","uuid":"Wegkreutz Jetschwil"}},{"geometry":{"coordinates":[7.08271,46.584492],"type":"Point"},"type":"Feature","properties":{"typePOI":"Arène","title":"Renaison (#3238)","uuid":"Renaison"}},{"geometry":{"coordinates":[7.063588,46.623318],"type":"Point"},"type":"Feature","properties":{"typePOI":"Arène","title":"Place de jeu (#3239)","uuid":"Place de jeu"}},{"geometry":{"coordinates":[7.164435,46.737987],"type":"Point"},"type":"Feature","properties":{"typePOI":"Arène","title":"Chapelle d'Essert (#3240)","uuid":"Chapelle d'Essert"}},{"geometry":{"coordinates":[7.277729,46.873442],"type":"Point"},"type":"Feature","properties":{"typePOI":"Arène","title":"Jesus-Statue Wünnewil (#3241)","uuid":"Jesus-Statue Wünnewil"}},{"geometry":{"coordinates":[7.083292,46.624252],"type":"Point"},"type":"Feature","properties":{"typePOI":"Arène","title":"Gravure D'une Grue (#3242)","uuid":"Gravure D'une Grue"}},{"geometry":{"coordinates":[7.06698,46.851627],"type":"Point"},"type":"Feature","properties":{"typePOI":"Arène","title":"Petite Place de Jeu (#3243)","uuid":"Petite Place de Jeu"}},{"geometry":{"coordinates":[7.264817,46.817695],"type":"Point"},"type":"Feature","properties":{"typePOI":"Arène","title":"Obermonten Pilgerweg 4 (#3244)","uuid":"Obermonten Pilgerweg 4"}},{"geometry":{"coordinates":[7.101717,46.560404],"type":"Point"},"type":"Feature","properties":{"typePOI":"Arène","title":"Pâturages Des Vaches (#3245)","uuid":"Pâturages Des Vaches"}},{"geometry":{"coordinates":[7.087099,46.865072],"type":"Point"},"type":"Feature","properties":{"typePOI":"Arène","title":"Croix En Bois (#3246)","uuid":"Croix En Bois"}},{"geometry":{"coordinates":[6.863519,46.861632],"type":"Point"},"type":"Feature","properties":{"typePOI":"Arène","title":"Chateau De La Corbière (#3247)","uuid":"Chateau De La Corbière"}},{"geometry":{"coordinates":[7.213928,46.811893],"type":"Point"},"type":"Feature","properties":{"typePOI":"Arène","title":"Harmonie des Waldes (#3248)","uuid":"Harmonie des Waldes"}},{"geometry":{"coordinates":[7.040933,46.760288],"type":"Point"},"type":"Feature","properties":{"typePOI":"Arène","title":"club des lutteurs - Schwingverein Cottens (#3249)","uuid":"club des lutteurs - Schwingverein Cottens"}},{"geometry":{"coordinates":[7.267687,46.85772],"type":"Point"},"type":"Feature","properties":{"typePOI":"Arène","title":"Wegkreuz (#3250)","uuid":"Wegkreuz"}},{"geometry":{"coordinates":[7.148593,46.795444],"type":"Point"},"type":"Feature","properties":{"typePOI":"Arène","title":"Wagon Le Cardinal (#3251)","uuid":"Wagon Le Cardinal"}},{"geometry":{"coordinates":[7.148757,46.784728],"type":"Point"},"type":"Feature","properties":{"typePOI":"Arène","title":"Les Pères Du St Sacrement (#3252)","uuid":"Les Pères Du St Sacrement"}},{"geometry":{"coordinates":[7.115818,46.893666],"type":"Point"},"type":"Feature","properties":{"typePOI":"Arène","title":"Doppel-Brunnen (#3253)","uuid":"Doppel-Brunnen"}},{"geometry":{"coordinates":[7.114891,46.769665],"type":"Point"},"type":"Feature","properties":{"typePOI":"Arène","title":"La Vache Grangeneuve (#3254)","uuid":"La Vache Grangeneuve"}},{"geometry":{"coordinates":[7.137782,46.696425],"type":"Point"},"type":"Feature","properties":{"typePOI":"Arène","title":"La Chapelle de La Roche (#3255)","uuid":"La Chapelle de La Roche"}},{"geometry":{"coordinates":[7.133471,46.798273],"type":"Point"},"type":"Feature","properties":{"typePOI":"Arène","title":"Toboggan de bel air (#3256)","uuid":"Toboggan de bel air"}},{"geometry":{"coordinates":[7.054024,46.624719],"type":"Point"},"type":"Feature","properties":{"typePOI":"Arène","title":"Collège du Sud (#3257)","uuid":"Collège du Sud"}},{"geometry":{"coordinates":[7.174293,46.803537],"type":"Point"},"type":"Feature","properties":{"typePOI":"Arène","title":"La Croix Du Gotteron (#3258)","uuid":"La Croix Du Gotteron"}},{"geometry":{"coordinates":[7.163661,46.784645],"type":"Point"},"type":"Feature","properties":{"typePOI":"Arène","title":"Station forestière (#3259)","uuid":"Station forestière"}},{"geometry":{"coordinates":[6.924956,46.70053],"type":"Point"},"type":"Feature","properties":{"typePOI":"Arène","title":"Croix De La Fille Dieu (#3260)","uuid":"Croix De La Fille Dieu"}},{"geometry":{"coordinates":[7.088731,46.534529],"type":"Point"},"type":"Feature","properties":{"typePOI":"Arène","title":"Grotte statue religieuse (#3261)","uuid":"Grotte statue religieuse"}},{"geometry":{"coordinates":[7.155057,46.815493],"type":"Point"},"type":"Feature","properties":{"typePOI":"Arène","title":"Chapelle St-leonard (#3262)","uuid":"Chapelle St-leonard"}},{"geometry":{"coordinates":[7.187141,46.831949],"type":"Point"},"type":"Feature","properties":{"typePOI":"Arène","title":"Father And Son (#3263)","uuid":"Father And Son"}},{"geometry":{"coordinates":[7.19004,46.804373],"type":"Point"},"type":"Feature","properties":{"typePOI":"Arène","title":"Colimaçon De Pierre (#3264)","uuid":"Colimaçon De Pierre"}},{"geometry":{"coordinates":[6.850051,46.521707],"type":"Point"},"type":"Feature","properties":{"typePOI":"Arène","title":"Church Of BOSSONENS (#3265)","uuid":"Church Of BOSSONENS"}},{"geometry":{"coordinates":[7.085856,46.587573],"type":"Point"},"type":"Feature","properties":{"typePOI":"Arène","title":"Aigle Royal Et Sa Chouette (#3266)","uuid":"Aigle Royal Et Sa Chouette"}},{"geometry":{"coordinates":[7.162415,46.788881],"type":"Point"},"type":"Feature","properties":{"typePOI":"Arène","title":"Ruine (#3267)","uuid":"Ruine"}},{"geometry":{"coordinates":[7.134359,46.933222],"type":"Point"},"type":"Feature","properties":{"typePOI":"Arène","title":"Gesamtmelioration Murten Altavilla (#3268)","uuid":"Gesamtmelioration Murten Altavilla"}},{"geometry":{"coordinates":[7.116714,46.784348],"type":"Point"},"type":"Feature","properties":{"typePOI":"Arène","title":"Sainte-Apolline (#3269)","uuid":"Sainte-Apolline"}},{"geometry":{"coordinates":[6.901556,46.528525],"type":"Point"},"type":"Feature","properties":{"typePOI":"Arène","title":"Église Catholique de Châtel Saint Denis (#3270)","uuid":"Église Catholique de Châtel Saint Denis"}},{"geometry":{"coordinates":[7.095305,46.805716],"type":"Point"},"type":"Feature","properties":{"typePOI":"Arène","title":"Terrain de foot Fc Corminboeuf (#3271)","uuid":"Terrain de foot Fc Corminboeuf"}},{"geometry":{"coordinates":[7.107413,46.925042],"type":"Point"},"type":"Feature","properties":{"typePOI":"Arène","title":"Pinte De Meyriez (#3272)","uuid":"Pinte De Meyriez"}},{"geometry":{"coordinates":[7.163474,46.802654],"type":"Point"},"type":"Feature","properties":{"typePOI":"Arène","title":"Service Archeologique Fribourg (#3273)","uuid":"Service Archeologique Fribourg"}},{"geometry":{"coordinates":[7.309794,46.891318],"type":"Point"},"type":"Feature","properties":{"typePOI":"Arène","title":"Sense Vitaparcours Posten 13 (#3274)","uuid":"Sense Vitaparcours Posten 13"}},{"geometry":{"coordinates":[6.953213,46.693218],"type":"Point"},"type":"Feature","properties":{"typePOI":"Arène","title":"Berlens Église (#3275)","uuid":"Berlens Église"}},{"geometry":{"coordinates":[7.019441,46.786049],"type":"Point"},"type":"Feature","properties":{"typePOI":"Arène","title":"Car In Bloom (#3276)","uuid":"Car In Bloom"}},{"geometry":{"coordinates":[7.136843,46.941128],"type":"Point"},"type":"Feature","properties":{"typePOI":"Arène","title":"Wheels (#3277)","uuid":"Wheels"}},{"geometry":{"coordinates":[7.096488,46.742922],"type":"Point"},"type":"Feature","properties":{"typePOI":"Arène","title":"La Tuffière (#3278)","uuid":"La Tuffière"}},{"geometry":{"coordinates":[7.2911,46.730631],"type":"Point"},"type":"Feature","properties":{"typePOI":"Arène","title":"Spielplatz im Stäfeliwegquartier (#3279)","uuid":"Spielplatz im Stäfeliwegquartier"}},{"geometry":{"coordinates":[7.092872,46.759423],"type":"Point"},"type":"Feature","properties":{"typePOI":"Arène","title":"Tête De Vaches (#3280)","uuid":"Tête De Vaches"}},{"geometry":{"coordinates":[7.156779,46.632693],"type":"Point"},"type":"Feature","properties":{"typePOI":"Arène","title":"Église de Cerniat (#3281)","uuid":"Église de Cerniat"}},{"geometry":{"coordinates":[7.26361,46.576364],"type":"Point"},"type":"Feature","properties":{"typePOI":"Arène","title":"Chalet du Soldat 1752m (#3282)","uuid":"Chalet du Soldat 1752m"}},{"geometry":{"coordinates":[7.225512,46.89139],"type":"Point"},"type":"Feature","properties":{"typePOI":"Arène","title":"Oldschool Farmhouse (#3283)","uuid":"Oldschool Farmhouse"}},{"geometry":{"coordinates":[7.110468,46.797402],"type":"Point"},"type":"Feature","properties":{"typePOI":"Arène","title":"Valons Mystère (#3284)","uuid":"Valons Mystère"}},{"geometry":{"coordinates":[7.139674,46.82057],"type":"Point"},"type":"Feature","properties":{"typePOI":"Arène","title":"Wagon En Bois (#3285)","uuid":"Wagon En Bois"}},{"geometry":{"coordinates":[6.928326,46.605184],"type":"Point"},"type":"Feature","properties":{"typePOI":"Arène","title":"Couper Des Arbre C'est (#3286)","uuid":"Couper Des Arbre C'est"}},{"geometry":{"coordinates":[7.029992,46.74935],"type":"Point"},"type":"Feature","properties":{"typePOI":"Arène","title":"Croix du père Schuwey (#3287)","uuid":"Croix du père Schuwey"}},{"geometry":{"coordinates":[7.103195,46.81272],"type":"Point"},"type":"Feature","properties":{"typePOI":"Arène","title":"Place de jeux des Blés (#3288)","uuid":"Place de jeux des Blés"}},{"geometry":{"coordinates":[7.125415,46.936356],"type":"Point"},"type":"Feature","properties":{"typePOI":"Arène","title":"Gemeindekanzlei (#3289)","uuid":"Gemeindekanzlei"}},{"geometry":{"coordinates":[7.158176,46.817707],"type":"Point"},"type":"Feature","properties":{"typePOI":"Arène","title":"Joseph (#3290)","uuid":"Joseph"}},{"geometry":{"coordinates":[7.151365,46.802696],"type":"Point"},"type":"Feature","properties":{"typePOI":"Arène","title":"Batiment Baroque Fribourg (#3291)","uuid":"Batiment Baroque Fribourg"}},{"geometry":{"coordinates":[7.274796,46.72916],"type":"Point"},"type":"Feature","properties":{"typePOI":"Arène","title":"Vitaparcours Posten 2 (#3292)","uuid":"Vitaparcours Posten 2"}},{"geometry":{"coordinates":[7.213615,46.811488],"type":"Point"},"type":"Feature","properties":{"typePOI":"Arène","title":"Grotte Tafers (#3293)","uuid":"Grotte Tafers"}},{"geometry":{"coordinates":[7.299866,46.892452],"type":"Point"},"type":"Feature","properties":{"typePOI":"Arène","title":"Altes Zeughaus (#3294)","uuid":"Altes Zeughaus"}},{"geometry":{"coordinates":[7.018265,46.830574],"type":"Point"},"type":"Feature","properties":{"typePOI":"Arène","title":"Fontaine de Léchelles (#3295)","uuid":"Fontaine de Léchelles"}},{"geometry":{"coordinates":[7.257971,46.768906],"type":"Point"},"type":"Feature","properties":{"typePOI":"Arène","title":"Wegkreuz bei Rotkreuz (#3296)","uuid":"Wegkreuz bei Rotkreuz"}},{"geometry":{"coordinates":[6.838781,46.85026],"type":"Point"},"type":"Feature","properties":{"typePOI":"Arène","title":"Capitainerie du Port (#3297)","uuid":"Capitainerie du Port"}},{"geometry":{"coordinates":[7.111638,46.69181],"type":"Point"},"type":"Feature","properties":{"typePOI":"Arène","title":"Chapelle Du Lac (#3298)","uuid":"Chapelle Du Lac"}},{"geometry":{"coordinates":[6.887606,46.813292],"type":"Point"},"type":"Feature","properties":{"typePOI":"Arène","title":"Chute Grillagée (#3299)","uuid":"Chute Grillagée"}},{"geometry":{"coordinates":[7.24865,46.856616],"type":"Point"},"type":"Feature","properties":{"typePOI":"Arène","title":"Grafitti im Dorf (#3300)","uuid":"Grafitti im Dorf"}},{"geometry":{"coordinates":[6.936098,46.751048],"type":"Point"},"type":"Feature","properties":{"typePOI":"Arène","title":"Sculpture (#3301)","uuid":"Sculpture"}},{"geometry":{"coordinates":[7.074744,46.772039],"type":"Point"},"type":"Feature","properties":{"typePOI":"Arène","title":"Air de jeu Champ Didon (#3302)","uuid":"Air de jeu Champ Didon"}},{"geometry":{"coordinates":[7.183154,46.95419],"type":"Point"},"type":"Feature","properties":{"typePOI":"Arène","title":"Rock-y Ried (#3303)","uuid":"Rock-y Ried"}},{"geometry":{"coordinates":[6.82253,46.792802],"type":"Point"},"type":"Feature","properties":{"typePOI":"Arène","title":"Fontaine du village de Franex (#3304)","uuid":"Fontaine du village de Franex"}},{"geometry":{"coordinates":[7.259801,46.865347],"type":"Point"},"type":"Feature","properties":{"typePOI":"Arène","title":"Jesusstatue Hagnet (#3305)","uuid":"Jesusstatue Hagnet"}},{"geometry":{"coordinates":[6.927596,46.572942],"type":"Point"},"type":"Feature","properties":{"typePOI":"Arène","title":"Église de Semsales (#3306)","uuid":"Église de Semsales"}},{"geometry":{"coordinates":[7.11591,46.800144],"type":"Point"},"type":"Feature","properties":{"typePOI":"Arène","title":"Au Bois De Mon Coeur (#3307)","uuid":"Au Bois De Mon Coeur"}},{"geometry":{"coordinates":[7.161918,46.621336],"type":"Point"},"type":"Feature","properties":{"typePOI":"Arène","title":"Bains de la Gruyère (#3308)","uuid":"Bains de la Gruyère"}},{"geometry":{"coordinates":[7.139983,46.898795],"type":"Point"},"type":"Feature","properties":{"typePOI":"Arène","title":"Fontaine de 1821 Cressier (#3309)","uuid":"Fontaine de 1821 Cressier"}},{"geometry":{"coordinates":[7.065964,46.831982],"type":"Point"},"type":"Feature","properties":{"typePOI":"Arène","title":"Gare de Grolley (#3310)","uuid":"Gare de Grolley"}},{"geometry":{"coordinates":[7.172259,46.811105],"type":"Point"},"type":"Feature","properties":{"typePOI":"Arène","title":"La Chapelle De Bertigny (#3311)","uuid":"La Chapelle De Bertigny"}},{"geometry":{"coordinates":[7.200953,46.990154],"type":"Point"},"type":"Feature","properties":{"typePOI":"Arène","title":"Jungle Trek Pavilion (#3312)","uuid":"Jungle Trek Pavilion"}},{"geometry":{"coordinates":[6.845355,46.848815],"type":"Point"},"type":"Feature","properties":{"typePOI":"Arène","title":"Eglise Des Petits Poissons (#3313)","uuid":"Eglise Des Petits Poissons"}},{"geometry":{"coordinates":[6.810662,46.611405],"type":"Point"},"type":"Feature","properties":{"typePOI":"Arène","title":"Auberge Communale (#3314)","uuid":"Auberge Communale"}},{"geometry":{"coordinates":[7.126465,46.786022],"type":"Point"},"type":"Feature","properties":{"typePOI":"Arène","title":"Glâne Tower (#3315)","uuid":"Glâne Tower"}},{"geometry":{"coordinates":[7.143765,46.93881],"type":"Point"},"type":"Feature","properties":{"typePOI":"Arène","title":"Schwinger-Brunnen (#3316)","uuid":"Schwinger-Brunnen"}},{"geometry":{"coordinates":[7.121168,46.930239],"type":"Point"},"type":"Feature","properties":{"typePOI":"Arène","title":"Huge Hammer (#3317)","uuid":"Huge Hammer"}},{"geometry":{"coordinates":[7.122316,46.690662],"type":"Point"},"type":"Feature","properties":{"typePOI":"Arène","title":"The cross with double tree (#3318)","uuid":"The cross with double tree"}},{"geometry":{"coordinates":[7.188121,46.649218],"type":"Point"},"type":"Feature","properties":{"typePOI":"Arène","title":"Chartreuse De La Valsainte (#3319)","uuid":"Chartreuse De La Valsainte"}},{"geometry":{"coordinates":[7.077348,46.777974],"type":"Point"},"type":"Feature","properties":{"typePOI":"Arène","title":"Cia Le Coq (#3320)","uuid":"Cia Le Coq"}},{"geometry":{"coordinates":[7.020192,46.73633],"type":"Point"},"type":"Feature","properties":{"typePOI":"Arène","title":"Eglise (#3321)","uuid":"Eglise"}},{"geometry":{"coordinates":[7.224673,46.741113],"type":"Point"},"type":"Feature","properties":{"typePOI":"Arène","title":"Kirche St. Silvester (#3322)","uuid":"Kirche St. Silvester"}},{"geometry":{"coordinates":[7.134552,46.937898],"type":"Point"},"type":"Feature","properties":{"typePOI":"Arène","title":"Chaise Haute (#3323)","uuid":"Chaise Haute"}},{"geometry":{"coordinates":[7.044839,46.613732],"type":"Point"},"type":"Feature","properties":{"typePOI":"Arène","title":"Panneau Agip (#3324)","uuid":"Panneau Agip"}},{"geometry":{"coordinates":[7.0698,46.605532],"type":"Point"},"type":"Feature","properties":{"typePOI":"Arène","title":"Fake Forest (#3325)","uuid":"Fake Forest"}},{"geometry":{"coordinates":[7.177181,46.750658],"type":"Point"},"type":"Feature","properties":{"typePOI":"Arène","title":"Aire de jeux de Praroman (#3326)","uuid":"Aire de jeux de Praroman"}},{"geometry":{"coordinates":[6.809867,46.825646],"type":"Point"},"type":"Feature","properties":{"typePOI":"Arène","title":"Brunnen 1950 (#3327)","uuid":"Brunnen 1950"}},{"geometry":{"coordinates":[7.268744,46.824482],"type":"Point"},"type":"Feature","properties":{"typePOI":"Arène","title":"Schutzzonen für Trinkwasser Niedermonten (#3328)","uuid":"Schutzzonen für Trinkwasser Niedermonten"}},{"geometry":{"coordinates":[7.096624,46.833589],"type":"Point"},"type":"Feature","properties":{"typePOI":"Arène","title":"Zurich parcoursvita 4 (#3329)","uuid":"Zurich parcoursvita 4"}},{"geometry":{"coordinates":[7.097409,46.952203],"type":"Point"},"type":"Feature","properties":{"typePOI":"Arène","title":"Steel Dragon (#3330)","uuid":"Steel Dragon"}},{"geometry":{"coordinates":[7.07111,46.833621],"type":"Point"},"type":"Feature","properties":{"typePOI":"Arène","title":"Eglise De Grolley (#3331)","uuid":"Eglise De Grolley"}},{"geometry":{"coordinates":[7.126406,46.812455],"type":"Point"},"type":"Feature","properties":{"typePOI":"Arène","title":"De Boccard (#3332)","uuid":"De Boccard"}},{"geometry":{"coordinates":[7.23381,46.823138],"type":"Point"},"type":"Feature","properties":{"typePOI":"Arène","title":"Wegkreuz Rohr (#3333)","uuid":"Wegkreuz Rohr"}},{"geometry":{"coordinates":[7.119221,46.963014],"type":"Point"},"type":"Feature","properties":{"typePOI":"Arène","title":"Fontaine Du Home Du Vully (#3334)","uuid":"Fontaine Du Home Du Vully"}},{"geometry":{"coordinates":[7.140275,46.89822],"type":"Point"},"type":"Feature","properties":{"typePOI":"Arène","title":"Cressier FR - Église (#3335)","uuid":"Cressier FR - Église"}},{"geometry":{"coordinates":[7.302206,46.825427],"type":"Point"},"type":"Feature","properties":{"typePOI":"Arène","title":"Kleiner Brunnen (#3336)","uuid":"Kleiner Brunnen"}},{"geometry":{"coordinates":[7.062555,46.505647],"type":"Point"},"type":"Feature","properties":{"typePOI":"Arène","title":"Église (#3337)","uuid":"Église"}},{"geometry":{"coordinates":[7.064945,46.768136],"type":"Point"},"type":"Feature","properties":{"typePOI":"Arène","title":"Maison Communale Neyruz (#3338)","uuid":"Maison Communale Neyruz"}},{"geometry":{"coordinates":[7.176566,46.800105],"type":"Point"},"type":"Feature","properties":{"typePOI":"Arène","title":"Notre Dame Du Carmel (#3339)","uuid":"Notre Dame Du Carmel"}},{"geometry":{"coordinates":[7.105964,46.918933],"type":"Point"},"type":"Feature","properties":{"typePOI":"Arène","title":"orange Rutsche (#3340)","uuid":"orange Rutsche"}},{"geometry":{"coordinates":[6.889383,46.83568],"type":"Point"},"type":"Feature","properties":{"typePOI":"Arène","title":"Croix 1774 (#3341)","uuid":"Croix 1774"}},{"geometry":{"coordinates":[6.835366,46.846136],"type":"Point"},"type":"Feature","properties":{"typePOI":"Arène","title":"Grenouille au banjo (#3342)","uuid":"Grenouille au banjo"}},{"geometry":{"coordinates":[6.790944,46.821701],"type":"Point"},"type":"Feature","properties":{"typePOI":"Arène","title":"Mosaik mit Sonne (#3343)","uuid":"Mosaik mit Sonne"}},{"geometry":{"coordinates":[7.061572,46.632958],"type":"Point"},"type":"Feature","properties":{"typePOI":"Arène","title":"Totem De Glasson (#3344)","uuid":"Totem De Glasson"}},{"geometry":{"coordinates":[7.114226,46.766594],"type":"Point"},"type":"Feature","properties":{"typePOI":"Arène","title":"Stonewall (#3345)","uuid":"Stonewall"}},{"geometry":{"coordinates":[7.159916,46.807604],"type":"Point"},"type":"Feature","properties":{"typePOI":"Arène","title":"Élément En Trois Pièces (#3346)","uuid":"Élément En Trois Pièces"}},{"geometry":{"coordinates":[7.26724,46.661693],"type":"Point"},"type":"Feature","properties":{"typePOI":"Arène","title":"Häxehuus (#3347)","uuid":"Häxehuus"}},{"geometry":{"coordinates":[6.988395,46.852954],"type":"Point"},"type":"Feature","properties":{"typePOI":"Arène","title":"Eglise De Dompierre (#3348)","uuid":"Eglise De Dompierre"}},{"geometry":{"coordinates":[7.115303,46.864207],"type":"Point"},"type":"Feature","properties":{"typePOI":"Arène","title":"Terrain De Foot Secondaire (#3349)","uuid":"Terrain De Foot Secondaire"}},{"geometry":{"coordinates":[7.282959,46.811733],"type":"Point"},"type":"Feature","properties":{"typePOI":"Arène","title":"Goldkuh Trifft Goldsau (#3350)","uuid":"Goldkuh Trifft Goldsau"}},{"geometry":{"coordinates":[7.068257,46.883396],"type":"Point"},"type":"Feature","properties":{"typePOI":"Arène","title":"Place de jeux de Villarepos (#3351)","uuid":"Place de jeux de Villarepos"}},{"geometry":{"coordinates":[7.107067,46.645356],"type":"Point"},"type":"Feature","properties":{"typePOI":"Arène","title":"Vieux Lavoir (#3352)","uuid":"Vieux Lavoir"}},{"geometry":{"coordinates":[7.113774,46.92721],"type":"Point"},"type":"Feature","properties":{"typePOI":"Arène","title":"Expo.02 (#3353)","uuid":"Expo.02"}},{"geometry":{"coordinates":[7.187237,46.961526],"type":"Point"},"type":"Feature","properties":{"typePOI":"Arène","title":"280 Millionen Jahre (#3354)","uuid":"280 Millionen Jahre"}},{"geometry":{"coordinates":[7.021392,46.704835],"type":"Point"},"type":"Feature","properties":{"typePOI":"Arène","title":"Croix Villarlod (#3355)","uuid":"Croix Villarlod"}},{"geometry":{"coordinates":[6.968453,46.770567],"type":"Point"},"type":"Feature","properties":{"typePOI":"Arène","title":"Église De Torny (#3356)","uuid":"Église De Torny"}},{"geometry":{"coordinates":[7.096155,46.782013],"type":"Point"},"type":"Feature","properties":{"typePOI":"Arène","title":"Venus Du Cisel (#3357)","uuid":"Venus Du Cisel"}},{"geometry":{"coordinates":[7.134134,46.812546],"type":"Point"},"type":"Feature","properties":{"typePOI":"Arène","title":"Pont de la Chassotte (#3358)","uuid":"Pont de la Chassotte"}},{"geometry":{"coordinates":[6.863872,46.829488],"type":"Point"},"type":"Feature","properties":{"typePOI":"Arène","title":"Fontaine de Frasnes (#3359)","uuid":"Fontaine de Frasnes"}},{"geometry":{"coordinates":[7.007662,46.759599],"type":"Point"},"type":"Feature","properties":{"typePOI":"Arène","title":"Fresque Football (#3360)","uuid":"Fresque Football"}},{"geometry":{"coordinates":[7.062361,46.611501],"type":"Point"},"type":"Feature","properties":{"typePOI":"Arène","title":"Panier ! (#3361)","uuid":"Panier !"}},{"geometry":{"coordinates":[7.153035,46.796501],"type":"Point"},"type":"Feature","properties":{"typePOI":"Arène","title":"Justice Mosaic (#3362)","uuid":"Justice Mosaic"}},{"geometry":{"coordinates":[7.087145,46.682942],"type":"Point"},"type":"Feature","properties":{"typePOI":"Arène","title":"Restoroute de la Gruyère (#3363)","uuid":"Restoroute de la Gruyère"}},{"geometry":{"coordinates":[6.9164,46.695702],"type":"Point"},"type":"Feature","properties":{"typePOI":"Arène","title":"Tour De Billens Tour Du Midi (#3364)","uuid":"Tour De Billens Tour Du Midi"}},{"geometry":{"coordinates":[7.172484,46.810911],"type":"Point"},"type":"Feature","properties":{"typePOI":"Arène","title":"Fontaine De La Chapelle (#3365)","uuid":"Fontaine De La Chapelle"}},{"geometry":{"coordinates":[7.126367,46.810373],"type":"Point"},"type":"Feature","properties":{"typePOI":"Arène","title":"Croix du Domaine Toutvent (#3366)","uuid":"Croix du Domaine Toutvent"}},{"geometry":{"coordinates":[7.195487,46.850573],"type":"Point"},"type":"Feature","properties":{"typePOI":"Arène","title":"Reformierte Kirchgemeinde (#3367)","uuid":"Reformierte Kirchgemeinde"}},{"geometry":{"coordinates":[7.065046,46.767823],"type":"Point"},"type":"Feature","properties":{"typePOI":"Arène","title":"Église de Neyruz (#3368)","uuid":"Église de Neyruz"}},{"geometry":{"coordinates":[7.210381,46.761142],"type":"Point"},"type":"Feature","properties":{"typePOI":"Arène","title":"Kirche Giffers (#3369)","uuid":"Kirche Giffers"}},{"geometry":{"coordinates":[7.128478,46.812838],"type":"Point"},"type":"Feature","properties":{"typePOI":"Arène","title":"Roi Grenouille (#3370)","uuid":"Roi Grenouille"}},{"geometry":{"coordinates":[7.192464,46.975087],"type":"Point"},"type":"Feature","properties":{"typePOI":"Arène","title":"Historisches Stellwerk Kerzers (#3371)","uuid":"Historisches Stellwerk Kerzers"}},{"geometry":{"coordinates":[7.245839,46.830965],"type":"Point"},"type":"Feature","properties":{"typePOI":"Arène","title":"Kapelle Obertützenberg (#3372)","uuid":"Kapelle Obertützenberg"}},{"geometry":{"coordinates":[7.168484,46.892352],"type":"Point"},"type":"Feature","properties":{"typePOI":"Arène","title":"OS Gurmels Sculpture (#3373)","uuid":"OS Gurmels Sculpture"}},{"geometry":{"coordinates":[6.90628,46.530713],"type":"Point"},"type":"Feature","properties":{"typePOI":"Arène","title":"Fontaine du Bourg (#3374)","uuid":"Fontaine du Bourg"}},{"geometry":{"coordinates":[7.115138,46.800256],"type":"Point"},"type":"Feature","properties":{"typePOI":"Arène","title":"Embrasser Un Arbre (#3375)","uuid":"Embrasser Un Arbre"}},{"geometry":{"coordinates":[6.977283,46.818504],"type":"Point"},"type":"Feature","properties":{"typePOI":"Arène","title":"Fontaine Kennedy (#3376)","uuid":"Fontaine Kennedy"}},{"geometry":{"coordinates":[7.186785,46.889066],"type":"Point"},"type":"Feature","properties":{"typePOI":"Arène","title":"Station 5 (#3377)","uuid":"Station 5"}},{"geometry":{"coordinates":[7.159254,46.857295],"type":"Point"},"type":"Feature","properties":{"typePOI":"Arène","title":"Chapelle De Barbereche (#3378)","uuid":"Chapelle De Barbereche"}},{"geometry":{"coordinates":[7.1112,46.908057],"type":"Point"},"type":"Feature","properties":{"typePOI":"Arène","title":"Les Hommes Debout (#3379)","uuid":"Les Hommes Debout"}},{"geometry":{"coordinates":[7.010626,46.792358],"type":"Point"},"type":"Feature","properties":{"typePOI":"Arène","title":"Agilité (#3380)","uuid":"Agilité"}},{"geometry":{"coordinates":[7.023644,46.670598],"type":"Point"},"type":"Feature","properties":{"typePOI":"Arène","title":"Chemin Des Sculptures (#3381)","uuid":"Chemin Des Sculptures"}},{"geometry":{"coordinates":[7.159772,46.910183],"type":"Point"},"type":"Feature","properties":{"typePOI":"Arène","title":"Güterzusammenlegung Salvenach and Jeuss (#3382)","uuid":"Güterzusammenlegung Salvenach and Jeuss"}},{"geometry":{"coordinates":[7.13124,46.611934],"type":"Point"},"type":"Feature","properties":{"typePOI":"Arène","title":"Hache Du Montsalvens (#3383)","uuid":"Hache Du Montsalvens"}},{"geometry":{"coordinates":[6.834651,46.831562],"type":"Point"},"type":"Feature","properties":{"typePOI":"Arène","title":"Terrain de jeux de Châtillon (#3384)","uuid":"Terrain de jeux de Châtillon"}},{"geometry":{"coordinates":[7.070234,46.771022],"type":"Point"},"type":"Feature","properties":{"typePOI":"Arène","title":"Place de jeu la chaumière (#3385)","uuid":"Place de jeu la chaumière"}},{"geometry":{"coordinates":[6.907229,46.530599],"type":"Point"},"type":"Feature","properties":{"typePOI":"Arène","title":"Paroisse Évangélique Réformée (#3386)","uuid":"Paroisse Évangélique Réformée"}},{"geometry":{"coordinates":[7.213143,46.809595],"type":"Point"},"type":"Feature","properties":{"typePOI":"Arène","title":"Infotafel Bienenweg (#3387)","uuid":"Infotafel Bienenweg"}},{"geometry":{"coordinates":[7.201005,46.932634],"type":"Point"},"type":"Feature","properties":{"typePOI":"Arène","title":"Doppelbrunnen Ulmiz (#3388)","uuid":"Doppelbrunnen Ulmiz"}},{"geometry":{"coordinates":[6.844373,46.83361],"type":"Point"},"type":"Feature","properties":{"typePOI":"Arène","title":"Colombe De Lully (#3389)","uuid":"Colombe De Lully"}},{"geometry":{"coordinates":[7.162626,46.806187],"type":"Point"},"type":"Feature","properties":{"typePOI":"Arène","title":"Cathédrale Saint-Nicolas Fribourg (#3390)","uuid":"Cathédrale Saint-Nicolas Fribourg"}},{"geometry":{"coordinates":[7.15139,46.81308],"type":"Point"},"type":"Feature","properties":{"typePOI":"Arène","title":"Piscines Du Levant (#3391)","uuid":"Piscines Du Levant"}},{"geometry":{"coordinates":[7.152717,46.8728],"type":"Point"},"type":"Feature","properties":{"typePOI":"Arène","title":"Eulentrio (#3392)","uuid":"Eulentrio"}},{"geometry":{"coordinates":[7.09659,46.834367],"type":"Point"},"type":"Feature","properties":{"typePOI":"Arène","title":"Art Forestier (#3393)","uuid":"Art Forestier"}},{"geometry":{"coordinates":[6.855258,46.501855],"type":"Point"},"type":"Feature","properties":{"typePOI":"Arène","title":"Sentier botanique (#3394)","uuid":"Sentier botanique"}},{"geometry":{"coordinates":[6.948837,46.52173],"type":"Point"},"type":"Feature","properties":{"typePOI":"Arène","title":"Statut Des Libellules (#3395)","uuid":"Statut Des Libellules"}},{"geometry":{"coordinates":[6.840013,46.844052],"type":"Point"},"type":"Feature","properties":{"typePOI":"Arène","title":"Le Cheval du Vétérinaire (#3396)","uuid":"Le Cheval du Vétérinaire"}},{"geometry":{"coordinates":[6.870591,46.748872],"type":"Point"},"type":"Feature","properties":{"typePOI":"Arène","title":"Croix Du Village Carrefour (#3397)","uuid":"Croix Du Village Carrefour"}},{"geometry":{"coordinates":[7.060853,46.832384],"type":"Point"},"type":"Feature","properties":{"typePOI":"Arène","title":"Terrain de petanque de la caserne de Grolley (#3398)","uuid":"Terrain de petanque de la caserne de Grolley"}},{"geometry":{"coordinates":[7.091727,46.700567],"type":"Point"},"type":"Feature","properties":{"typePOI":"Arène","title":"L'île D'ogoz (#3399)","uuid":"L'île D'ogoz"}},{"geometry":{"coordinates":[7.16617,46.769619],"type":"Point"},"type":"Feature","properties":{"typePOI":"Arène","title":"Game Place Of Ice Rink (#3400)","uuid":"Game Place Of Ice Rink"}},{"geometry":{"coordinates":[7.095936,46.974452],"type":"Point"},"type":"Feature","properties":{"typePOI":"Arène","title":"Camping Les 3 Lacs (#3401)","uuid":"Camping Les 3 Lacs"}},{"geometry":{"coordinates":[7.182036,46.803015],"type":"Point"},"type":"Feature","properties":{"typePOI":"Arène","title":"Pinte des Trois Canards (#3402)","uuid":"Pinte des Trois Canards"}},{"geometry":{"coordinates":[6.932982,46.607789],"type":"Point"},"type":"Feature","properties":{"typePOI":"Arène","title":"Le Sentier (#3403)","uuid":"Le Sentier"}},{"geometry":{"coordinates":[7.069245,46.857834],"type":"Point"},"type":"Feature","properties":{"typePOI":"Arène","title":"Paroisse de Courtion (#3404)","uuid":"Paroisse de Courtion"}},{"geometry":{"coordinates":[7.147448,46.828101],"type":"Point"},"type":"Feature","properties":{"typePOI":"Arène","title":"Oh La Vache! (#3405)","uuid":"Oh La Vache!"}},{"geometry":{"coordinates":[7.146014,46.754272],"type":"Point"},"type":"Feature","properties":{"typePOI":"Arène","title":"Trace De Vie (#3406)","uuid":"Trace De Vie"}},{"geometry":{"coordinates":[7.128055,46.8125],"type":"Point"},"type":"Feature","properties":{"typePOI":"Arène","title":"Place d'Affry (#3407)","uuid":"Place d'Affry"}},{"geometry":{"coordinates":[7.084537,46.948603],"type":"Point"},"type":"Feature","properties":{"typePOI":"Arène","title":"Fontaine adm. com. Haut-Vully (#3408)","uuid":"Fontaine adm. com. Haut-Vully"}},{"geometry":{"coordinates":[7.109082,46.605824],"type":"Point"},"type":"Feature","properties":{"typePOI":"Arène","title":"Brunnen Pl. de Moulins (#3409)","uuid":"Brunnen Pl. de Moulins"}},{"geometry":{"coordinates":[7.108197,46.834058],"type":"Point"},"type":"Feature","properties":{"typePOI":"Arène","title":"Fontaine 1895 (#3410)","uuid":"Fontaine 1895"}},{"geometry":{"coordinates":[6.843147,46.850462],"type":"Point"},"type":"Feature","properties":{"typePOI":"Arène","title":"Jesus Fatalus (#3411)","uuid":"Jesus Fatalus"}},{"geometry":{"coordinates":[7.018222,46.668569],"type":"Point"},"type":"Feature","properties":{"typePOI":"Arène","title":"Trône De Dame Nature (#3412)","uuid":"Trône De Dame Nature"}},{"geometry":{"coordinates":[7.056096,46.516998],"type":"Point"},"type":"Feature","properties":{"typePOI":"Arène","title":"Eglise D'albeuve (#3413)","uuid":"Eglise D'albeuve"}},{"geometry":{"coordinates":[7.091373,46.83228],"type":"Point"},"type":"Feature","properties":{"typePOI":"Arène","title":"Les Ours de la Forêt (#3414)","uuid":"Les Ours de la Forêt"}},{"geometry":{"coordinates":[7.106473,46.822113],"type":"Point"},"type":"Feature","properties":{"typePOI":"Arène","title":"Église de Belfaux (#3415)","uuid":"Église de Belfaux"}},{"geometry":{"coordinates":[6.915778,46.718308],"type":"Point"},"type":"Feature","properties":{"typePOI":"Arène","title":"Forêt de Billens (#3416)","uuid":"Forêt de Billens"}},{"geometry":{"coordinates":[7.097222,46.781944],"type":"Point"},"type":"Feature","properties":{"typePOI":"Arène","title":"Racines du Rocher (#3417)","uuid":"Racines du Rocher"}},{"geometry":{"coordinates":[6.991157,46.638675],"type":"Point"},"type":"Feature","properties":{"typePOI":"Arène","title":"Chapelle De Maules (#3418)","uuid":"Chapelle De Maules"}},{"geometry":{"coordinates":[6.903318,46.667792],"type":"Point"},"type":"Feature","properties":{"typePOI":"Arène","title":"Chapelle Notre Dame Du Bois (#3419)","uuid":"Chapelle Notre Dame Du Bois"}},{"geometry":{"coordinates":[6.989976,46.619176],"type":"Point"},"type":"Feature","properties":{"typePOI":"Arène","title":"Gare de Vaulruz-Sud (#3420)","uuid":"Gare de Vaulruz-Sud"}},{"geometry":{"coordinates":[6.881372,46.784141],"type":"Point"},"type":"Feature","properties":{"typePOI":"Arène","title":"Église de Ménières (#3421)","uuid":"Église de Ménières"}},{"geometry":{"coordinates":[7.256726,46.744933],"type":"Point"},"type":"Feature","properties":{"typePOI":"Arène","title":"Wegkreuz Wyden (#3422)","uuid":"Wegkreuz Wyden"}},{"geometry":{"coordinates":[7.063132,46.621686],"type":"Point"},"type":"Feature","properties":{"typePOI":"Arène","title":"Rond-Point Jarres (#3423)","uuid":"Rond-Point Jarres"}},{"geometry":{"coordinates":[7.032788,46.716389],"type":"Point"},"type":"Feature","properties":{"typePOI":"Arène","title":"Fontaine Du Berger (#3424)","uuid":"Fontaine Du Berger"}},{"geometry":{"coordinates":[7.165204,46.805221],"type":"Point"},"type":"Feature","properties":{"typePOI":"Arène","title":"L'homme A La Croix (#3425)","uuid":"L'homme A La Croix"}},{"geometry":{"coordinates":[6.898696,46.526053],"type":"Point"},"type":"Feature","properties":{"typePOI":"Arène","title":"Gare De Chatel St Denis (#3426)","uuid":"Gare De Chatel St Denis"}},{"geometry":{"coordinates":[7.164825,46.799217],"type":"Point"},"type":"Feature","properties":{"typePOI":"Arène","title":"Livre du Barrage de la Maigrauge (#3427)","uuid":"Livre du Barrage de la Maigrauge"}},{"geometry":{"coordinates":[7.249877,46.895061],"type":"Point"},"type":"Feature","properties":{"typePOI":"Arène","title":"Wegkreuz Noflen (#3428)","uuid":"Wegkreuz Noflen"}},{"geometry":{"coordinates":[6.886742,46.518758],"type":"Point"},"type":"Feature","properties":{"typePOI":"Arène","title":"Fontaine de la Rapasse (#3429)","uuid":"Fontaine de la Rapasse"}},{"geometry":{"coordinates":[7.234007,46.733774],"type":"Point"},"type":"Feature","properties":{"typePOI":"Arène","title":"Arc En Bois (#3430)","uuid":"Arc En Bois"}},{"geometry":{"coordinates":[7.155975,46.805334],"type":"Point"},"type":"Feature","properties":{"typePOI":"Arène","title":"Horloge des Places (#3431)","uuid":"Horloge des Places"}},{"geometry":{"coordinates":[6.782223,46.811845],"type":"Point"},"type":"Feature","properties":{"typePOI":"Arène","title":"La Lécheyre, les chevaux galopants (#3432)","uuid":"La Lécheyre, les chevaux galopants"}},{"geometry":{"coordinates":[7.059471,46.605852],"type":"Point"},"type":"Feature","properties":{"typePOI":"Arène","title":"Co De La Tour (#3433)","uuid":"Co De La Tour"}},{"geometry":{"coordinates":[7.216329,46.717262],"type":"Point"},"type":"Feature","properties":{"typePOI":"Arène","title":"Chrüzflue Kreuz (#3434)","uuid":"Chrüzflue Kreuz"}},{"geometry":{"coordinates":[6.784719,46.811292],"type":"Point"},"type":"Feature","properties":{"typePOI":"Arène","title":"Weinlehrpfad Posten 12 (#3435)","uuid":"Weinlehrpfad Posten 12"}},{"geometry":{"coordinates":[7.160155,46.775141],"type":"Point"},"type":"Feature","properties":{"typePOI":"Arène","title":"Fontaine Du Flutiste De Gela (#3436)","uuid":"Fontaine Du Flutiste De Gela"}},{"geometry":{"coordinates":[6.900895,46.699565],"type":"Point"},"type":"Feature","properties":{"typePOI":"Arène","title":"Place de jeux de la Maula (#3437)","uuid":"Place de jeux de la Maula"}},{"geometry":{"coordinates":[7.276559,46.659673],"type":"Point"},"type":"Feature","properties":{"typePOI":"Arène","title":"Schwarzsee Enstehung (#3438)","uuid":"Schwarzsee Enstehung"}},{"geometry":{"coordinates":[7.146836,46.803327],"type":"Point"},"type":"Feature","properties":{"typePOI":"Arène","title":"Église Saint Pierre (#3439)","uuid":"Église Saint Pierre"}},{"geometry":{"coordinates":[7.175134,46.803055],"type":"Point"},"type":"Feature","properties":{"typePOI":"Arène","title":"La Vache Du Gotteron (#3440)","uuid":"La Vache Du Gotteron"}},{"geometry":{"coordinates":[7.101158,46.818671],"type":"Point"},"type":"Feature","properties":{"typePOI":"Arène","title":"Place de jeux Bonjard (#3441)","uuid":"Place de jeux Bonjard"}},{"geometry":{"coordinates":[7.280764,46.871908],"type":"Point"},"type":"Feature","properties":{"typePOI":"Arène","title":"Wünnewil Train Station (#3442)","uuid":"Wünnewil Train Station"}},{"geometry":{"coordinates":[7.060737,46.849841],"type":"Point"},"type":"Feature","properties":{"typePOI":"Arène","title":"Promenade du Perron (#3443)","uuid":"Promenade du Perron"}},{"geometry":{"coordinates":[7.034652,46.751142],"type":"Point"},"type":"Feature","properties":{"typePOI":"Arène","title":"Gare Cottens Fr 01 (#3444)","uuid":"Gare Cottens Fr 01"}},{"geometry":{"coordinates":[7.144827,46.810643],"type":"Point"},"type":"Feature","properties":{"typePOI":"Arène","title":"Éponge Verte (#3445)","uuid":"Éponge Verte"}},{"geometry":{"coordinates":[7.069386,46.539948],"type":"Point"},"type":"Feature","properties":{"typePOI":"Arène","title":"Eglise De Villars Sous Mont (#3446)","uuid":"Eglise De Villars Sous Mont"}},{"geometry":{"coordinates":[7.171265,46.913343],"type":"Point"},"type":"Feature","properties":{"typePOI":"Arène","title":"Eiche Und Mythologie (#3447)","uuid":"Eiche Und Mythologie"}},{"geometry":{"coordinates":[7.274831,46.827239],"type":"Point"},"type":"Feature","properties":{"typePOI":"Arène","title":"Wegkreuz Grenchen (#3448)","uuid":"Wegkreuz Grenchen"}},{"geometry":{"coordinates":[7.072572,46.837161],"type":"Point"},"type":"Feature","properties":{"typePOI":"Arène","title":"Terrain de foot de Grolley (#3449)","uuid":"Terrain de foot de Grolley"}},{"geometry":{"coordinates":[7.132502,46.947967],"type":"Point"},"type":"Feature","properties":{"typePOI":"Arène","title":"Juragewässerkorrektion (#3450)","uuid":"Juragewässerkorrektion"}},{"geometry":{"coordinates":[7.27657,46.874638],"type":"Point"},"type":"Feature","properties":{"typePOI":"Arène","title":"Altes Gemeindehaus Wünnewil (#3451)","uuid":"Altes Gemeindehaus Wünnewil"}},{"geometry":{"coordinates":[7.215609,46.815881],"type":"Point"},"type":"Feature","properties":{"typePOI":"Arène","title":"Mond Brunnen (#3452)","uuid":"Mond Brunnen"}},{"geometry":{"coordinates":[7.014775,46.666702],"type":"Point"},"type":"Feature","properties":{"typePOI":"Arène","title":"Chiens De Prairies (#3453)","uuid":"Chiens De Prairies"}},{"geometry":{"coordinates":[7.215307,46.81086],"type":"Point"},"type":"Feature","properties":{"typePOI":"Arène","title":"Mühlespiel (#3454)","uuid":"Mühlespiel"}},{"geometry":{"coordinates":[7.280804,46.66816],"type":"Point"},"type":"Feature","properties":{"typePOI":"Arène","title":"Ausguck Schwarzsee (#3455)","uuid":"Ausguck Schwarzsee"}},{"geometry":{"coordinates":[6.910546,46.685765],"type":"Point"},"type":"Feature","properties":{"typePOI":"Arène","title":"Bicubic Romont (#3456)","uuid":"Bicubic Romont"}},{"geometry":{"coordinates":[7.059908,46.722452],"type":"Point"},"type":"Feature","properties":{"typePOI":"Arène","title":"Salle de sport (#3457)","uuid":"Salle de sport"}},{"geometry":{"coordinates":[7.06167,46.715054],"type":"Point"},"type":"Feature","properties":{"typePOI":"Arène","title":"Le Singe De Vuisternnens En Ogoz (#3458)","uuid":"Le Singe De Vuisternnens En Ogoz"}},{"geometry":{"coordinates":[7.314691,46.889919],"type":"Point"},"type":"Feature","properties":{"typePOI":"Arène","title":"Information Place Flamatt (#3459)","uuid":"Information Place Flamatt"}},{"geometry":{"coordinates":[7.16051,46.770922],"type":"Point"},"type":"Feature","properties":{"typePOI":"Arène","title":"Brouette Suspendue (#3460)","uuid":"Brouette Suspendue"}},{"geometry":{"coordinates":[7.188475,46.84513],"type":"Point"},"type":"Feature","properties":{"typePOI":"Arène","title":"Tonneau Cave des Rochers (#3461)","uuid":"Tonneau Cave des Rochers"}},{"geometry":{"coordinates":[7.200638,46.973896],"type":"Point"},"type":"Feature","properties":{"typePOI":"Arène","title":"Bibliothek Kerzers (#3462)","uuid":"Bibliothek Kerzers"}},{"geometry":{"coordinates":[7.194097,46.845334],"type":"Point"},"type":"Feature","properties":{"typePOI":"Arène","title":"Holy Cros Of Sandacher (#3463)","uuid":"Holy Cros Of Sandacher"}},{"geometry":{"coordinates":[7.055058,46.734956],"type":"Point"},"type":"Feature","properties":{"typePOI":"Arène","title":"Croix en bois (#3464)","uuid":"Croix en bois"}},{"geometry":{"coordinates":[6.938293,46.895225],"type":"Point"},"type":"Feature","properties":{"typePOI":"Arène","title":"Gletterens Bus Station (#3465)","uuid":"Gletterens Bus Station"}},{"geometry":{"coordinates":[7.164066,46.805357],"type":"Point"},"type":"Feature","properties":{"typePOI":"Arène","title":"L'homme A L'enfant (#3466)","uuid":"L'homme A L'enfant"}},{"geometry":{"coordinates":[6.884584,46.880288],"type":"Point"},"type":"Feature","properties":{"typePOI":"Arène","title":"Réserve Naturelle (#3467)","uuid":"Réserve Naturelle"}},{"geometry":{"coordinates":[7.158265,46.797202],"type":"Point"},"type":"Feature","properties":{"typePOI":"Arène","title":"Humans Nº2 (#3468)","uuid":"Humans Nº2"}},{"geometry":{"coordinates":[7.138953,46.776668],"type":"Point"},"type":"Feature","properties":{"typePOI":"Arène","title":"Place De Jeux Quartier Bel-air (#3469)","uuid":"Place De Jeux Quartier Bel-air"}},{"geometry":{"coordinates":[7.100328,46.698225],"type":"Point"},"type":"Feature","properties":{"typePOI":"Arène","title":"Château D'Ogoz (#3470)","uuid":"Château D'Ogoz"}},{"geometry":{"coordinates":[7.093167,46.975607],"type":"Point"},"type":"Feature","properties":{"typePOI":"Arène","title":"Schifflände Camping Les 3 Lacs (#3471)","uuid":"Schifflände Camping Les 3 Lacs"}},{"geometry":{"coordinates":[7.015894,46.828994],"type":"Point"},"type":"Feature","properties":{"typePOI":"Arène","title":"Église De Léchelles (#3472)","uuid":"Église De Léchelles"}},{"geometry":{"coordinates":[7.075018,46.648151],"type":"Point"},"type":"Feature","properties":{"typePOI":"Arène","title":"La Vierge (#3473)","uuid":"La Vierge"}},{"geometry":{"coordinates":[7.102143,46.602644],"type":"Point"},"type":"Feature","properties":{"typePOI":"Arène","title":"Fontaine de la Grue (#3474)","uuid":"Fontaine de la Grue"}},{"geometry":{"coordinates":[7.155231,46.805456],"type":"Point"},"type":"Feature","properties":{"typePOI":"Arène","title":"Fontaine de Saint Pierre Fribourg (#3475)","uuid":"Fontaine de Saint Pierre Fribourg"}},{"geometry":{"coordinates":[7.169337,46.804826],"type":"Point"},"type":"Feature","properties":{"typePOI":"Arène","title":"La Fleur De Lys (#3476)","uuid":"La Fleur De Lys"}},{"geometry":{"coordinates":[6.909542,46.521428],"type":"Point"},"type":"Feature","properties":{"typePOI":"Arène","title":"Place de jeux (#3477)","uuid":"Place de jeux"}},{"geometry":{"coordinates":[7.146865,46.824144],"type":"Point"},"type":"Feature","properties":{"typePOI":"Arène","title":"Souvenir du syndicat d'amélioration foncière (#3478)","uuid":"Souvenir du syndicat d'amélioration foncière"}},{"geometry":{"coordinates":[6.779954,46.81692],"type":"Point"},"type":"Feature","properties":{"typePOI":"Arène","title":"Naturschutzgebiet Baie d'Yvonand (#3479)","uuid":"Naturschutzgebiet Baie d'Yvonand"}},{"geometry":{"coordinates":[7.312716,46.636684],"type":"Point"},"type":"Feature","properties":{"typePOI":"Arène","title":"Schafberg (#3480)","uuid":"Schafberg"}},{"geometry":{"coordinates":[7.197598,46.940678],"type":"Point"},"type":"Feature","properties":{"typePOI":"Arène","title":"Kantonsschild (#3481)","uuid":"Kantonsschild"}},{"geometry":{"coordinates":[7.141814,46.846865],"type":"Point"},"type":"Feature","properties":{"typePOI":"Arène","title":"Picknick-Platz von Chanps Saint-Nicolas (#3482)","uuid":"Picknick-Platz von Chanps Saint-Nicolas"}},{"geometry":{"coordinates":[7.158272,46.820834],"type":"Point"},"type":"Feature","properties":{"typePOI":"Arène","title":"Mors Auxilium Vitae (#3483)","uuid":"Mors Auxilium Vitae"}},{"geometry":{"coordinates":[7.174393,46.893387],"type":"Point"},"type":"Feature","properties":{"typePOI":"Arène","title":"Brunnen Beim Hospiz (#3484)","uuid":"Brunnen Beim Hospiz"}},{"geometry":{"coordinates":[7.16412,46.798229],"type":"Point"},"type":"Feature","properties":{"typePOI":"Arène","title":"Pressa (#3485)","uuid":"Pressa"}},{"geometry":{"coordinates":[6.978736,46.622902],"type":"Point"},"type":"Feature","properties":{"typePOI":"Arène","title":"Terrain De Foot (#3486)","uuid":"Terrain De Foot"}},{"geometry":{"coordinates":[7.132498,46.794669],"type":"Point"},"type":"Feature","properties":{"typePOI":"Arène","title":"Nuithonie (#3487)","uuid":"Nuithonie"}},{"geometry":{"coordinates":[7.066727,46.656135],"type":"Point"},"type":"Feature","properties":{"typePOI":"Arène","title":"Monolith (#3488)","uuid":"Monolith"}},{"geometry":{"coordinates":[7.113016,46.796726],"type":"Point"},"type":"Feature","properties":{"typePOI":"Arène","title":"Serrés Ou Espacés (#3489)","uuid":"Serrés Ou Espacés"}},{"geometry":{"coordinates":[7.08906,46.536333],"type":"Point"},"type":"Feature","properties":{"typePOI":"Arène","title":"Globe Métallique (#3490)","uuid":"Globe Métallique"}},{"geometry":{"coordinates":[7.122079,46.958198],"type":"Point"},"type":"Feature","properties":{"typePOI":"Arène","title":"Eine Plantage ist nicht Naturwald (#3491)","uuid":"Eine Plantage ist nicht Naturwald"}},{"geometry":{"coordinates":[6.914417,46.795956],"type":"Point"},"type":"Feature","properties":{"typePOI":"Arène","title":"Jésus sur la croix (#3492)","uuid":"Jésus sur la croix"}},{"geometry":{"coordinates":[7.196469,46.761459],"type":"Point"},"type":"Feature","properties":{"typePOI":"Arène","title":"Les Luges (#3493)","uuid":"Les Luges"}},{"geometry":{"coordinates":[7.008547,46.79137],"type":"Point"},"type":"Feature","properties":{"typePOI":"Arène","title":"Rek (#3494)","uuid":"Rek"}},{"geometry":{"coordinates":[7.266652,46.75472],"type":"Point"},"type":"Feature","properties":{"typePOI":"Arène","title":"Alter Holzbrunnen Buchenkapelle (#3495)","uuid":"Alter Holzbrunnen Buchenkapelle"}},{"geometry":{"coordinates":[6.994194,46.624604],"type":"Point"},"type":"Feature","properties":{"typePOI":"Arène","title":"Les 3 Sapins Vaulruz FR (#3496)","uuid":"Les 3 Sapins Vaulruz FR"}},{"geometry":{"coordinates":[7.069409,46.604418],"type":"Point"},"type":"Feature","properties":{"typePOI":"Arène","title":"Chapelle De La Motta (#3497)","uuid":"Chapelle De La Motta"}},{"geometry":{"coordinates":[7.109704,46.813711],"type":"Point"},"type":"Feature","properties":{"typePOI":"Arène","title":"Barrière De Pierres (#3498)","uuid":"Barrière De Pierres"}},{"geometry":{"coordinates":[6.83045,46.783794],"type":"Point"},"type":"Feature","properties":{"typePOI":"Arène","title":"Fontaine 1890 (#3499)","uuid":"Fontaine 1890"}},{"geometry":{"coordinates":[7.214378,46.974011],"type":"Point"},"type":"Feature","properties":{"typePOI":"Arène","title":"Schwimbad Kerzers (#3500)","uuid":"Schwimbad Kerzers"}},{"geometry":{"coordinates":[7.321234,46.867282],"type":"Point"},"type":"Feature","properties":{"typePOI":"Arène","title":"Vitaparcours 11 Ubersdorf (#3501)","uuid":"Vitaparcours 11 Ubersdorf"}},{"geometry":{"coordinates":[7.151327,46.794962],"type":"Point"},"type":"Feature","properties":{"typePOI":"Arène","title":"Fresque Fri-Son (#3502)","uuid":"Fresque Fri-Son"}},{"geometry":{"coordinates":[7.084482,46.626488],"type":"Point"},"type":"Feature","properties":{"typePOI":"Arène","title":"Petite croix (#3503)","uuid":"Petite croix"}},{"geometry":{"coordinates":[7.110068,46.91795],"type":"Point"},"type":"Feature","properties":{"typePOI":"Arène","title":"Der brunnen ist weg, für immer (#3504)","uuid":"Der brunnen ist weg, für immer"}},{"geometry":{"coordinates":[7.067084,46.62648],"type":"Point"},"type":"Feature","properties":{"typePOI":"Arène","title":"Globull (#3505)","uuid":"Globull"}},{"geometry":{"coordinates":[6.854636,46.849293],"type":"Point"},"type":"Feature","properties":{"typePOI":"Arène","title":"La Prillaz (#3506)","uuid":"La Prillaz"}},{"geometry":{"coordinates":[7.091172,46.797893],"type":"Point"},"type":"Feature","properties":{"typePOI":"Arène","title":"6. Mobilité - Force (#3507)","uuid":"6. Mobilité - Force"}},{"geometry":{"coordinates":[6.82248,46.620297],"type":"Point"},"type":"Feature","properties":{"typePOI":"Arène","title":"Château De Rue (#3508)","uuid":"Château De Rue"}},{"geometry":{"coordinates":[7.02112,46.615685],"type":"Point"},"type":"Feature","properties":{"typePOI":"Arène","title":"Fontaine de quartier (#3509)","uuid":"Fontaine de quartier"}},{"geometry":{"coordinates":[6.888852,46.876524],"type":"Point"},"type":"Feature","properties":{"typePOI":"Arène","title":"Ancien lavoir (#3510)","uuid":"Ancien lavoir"}},{"geometry":{"coordinates":[7.136851,46.842345],"type":"Point"},"type":"Feature","properties":{"typePOI":"Arène","title":"Carillon Pensier (#3511)","uuid":"Carillon Pensier"}},{"geometry":{"coordinates":[7.096255,46.788951],"type":"Point"},"type":"Feature","properties":{"typePOI":"Arène","title":"Gare De Matran (#3512)","uuid":"Gare De Matran"}},{"geometry":{"coordinates":[7.054908,46.690142],"type":"Point"},"type":"Feature","properties":{"typePOI":"Arène","title":"HABITAT (#3513)","uuid":"HABITAT"}},{"geometry":{"coordinates":[7.066175,46.608996],"type":"Point"},"type":"Feature","properties":{"typePOI":"Arène","title":"Église De la tour-de-trême (#3514)","uuid":"Église De la tour-de-trême"}},{"geometry":{"coordinates":[7.017093,46.548793],"type":"Point"},"type":"Feature","properties":{"typePOI":"Arène","title":"Sommet du Moléson (#3515)","uuid":"Sommet du Moléson"}},{"geometry":{"coordinates":[6.901888,46.52238],"type":"Point"},"type":"Feature","properties":{"typePOI":"Arène","title":"Fontaine des rochettes (#3516)","uuid":"Fontaine des rochettes"}},{"geometry":{"coordinates":[6.917427,46.697156],"type":"Point"},"type":"Feature","properties":{"typePOI":"Arène","title":"Tour Sans Tête (#3517)","uuid":"Tour Sans Tête"}},{"geometry":{"coordinates":[7.200756,46.740488],"type":"Point"},"type":"Feature","properties":{"typePOI":"Arène","title":"Eglise Bonnefontaine (#3518)","uuid":"Eglise Bonnefontaine"}},{"geometry":{"coordinates":[7.124884,46.864898],"type":"Point"},"type":"Feature","properties":{"typePOI":"Arène","title":"Bureau de Poste de Courtepin (#3519)","uuid":"Bureau de Poste de Courtepin"}},{"geometry":{"coordinates":[7.160787,46.950883],"type":"Point"},"type":"Feature","properties":{"typePOI":"Arène","title":"BLUMEN DER VERBOGENEN RÖHRE (#3520)","uuid":"BLUMEN DER VERBOGENEN RÖHRE"}},{"geometry":{"coordinates":[7.297643,46.791183],"type":"Point"},"type":"Feature","properties":{"typePOI":"Arène","title":"Schwarzdorn (#3521)","uuid":"Schwarzdorn"}},{"geometry":{"coordinates":[7.17198,46.744951],"type":"Point"},"type":"Feature","properties":{"typePOI":"Arène","title":"Hotel Croix Blanche (#3522)","uuid":"Hotel Croix Blanche"}},{"geometry":{"coordinates":[6.804544,46.821914],"type":"Point"},"type":"Feature","properties":{"typePOI":"Arène","title":"Alter Brunnen mit Sitzbänken (#3523)","uuid":"Alter Brunnen mit Sitzbänken"}},{"geometry":{"coordinates":[7.06648,46.615314],"type":"Point"},"type":"Feature","properties":{"typePOI":"Arène","title":"Stade De Bulle (#3524)","uuid":"Stade De Bulle"}},{"geometry":{"coordinates":[6.91912,46.696609],"type":"Point"},"type":"Feature","properties":{"typePOI":"Arène","title":"Romont Saint-Jacques Fountain (#3525)","uuid":"Romont Saint-Jacques Fountain"}},{"geometry":{"coordinates":[6.994922,46.716197],"type":"Point"},"type":"Feature","properties":{"typePOI":"Arène","title":"Panneau d'informations officielles (#3526)","uuid":"Panneau d'informations officielles"}},{"geometry":{"coordinates":[7.111007,46.70051],"type":"Point"},"type":"Feature","properties":{"typePOI":"Arène","title":"Fontaine à 2 goulots (#3527)","uuid":"Fontaine à 2 goulots"}},{"geometry":{"coordinates":[7.17498,46.816188],"type":"Point"},"type":"Feature","properties":{"typePOI":"Arène","title":"Spielplatz (#3528)","uuid":"Spielplatz"}},{"geometry":{"coordinates":[7.25011,46.768673],"type":"Point"},"type":"Feature","properties":{"typePOI":"Arène","title":"Kirche Weissenstein (#3529)","uuid":"Kirche Weissenstein"}},{"geometry":{"coordinates":[7.269835,46.862],"type":"Point"},"type":"Feature","properties":{"typePOI":"Arène","title":"Kreuz Mülital (#3530)","uuid":"Kreuz Mülital"}},{"geometry":{"coordinates":[7.092286,46.798377],"type":"Point"},"type":"Feature","properties":{"typePOI":"Arène","title":"5. Mobilité (#3531)","uuid":"5. Mobilité"}},{"geometry":{"coordinates":[7.055183,46.687394],"type":"Point"},"type":"Feature","properties":{"typePOI":"Arène","title":"Sainte vierge des bucherons (#3532)","uuid":"Sainte vierge des bucherons"}},{"geometry":{"coordinates":[7.159649,46.801005],"type":"Point"},"type":"Feature","properties":{"typePOI":"Arène","title":"PORTE DE LA MAIGRAUGE (#3533)","uuid":"PORTE DE LA MAIGRAUGE"}},{"geometry":{"coordinates":[7.124368,46.866335],"type":"Point"},"type":"Feature","properties":{"typePOI":"Arène","title":"Salle Polyvalente (#3534)","uuid":"Salle Polyvalente"}},{"geometry":{"coordinates":[6.881099,46.87431],"type":"Point"},"type":"Feature","properties":{"typePOI":"Arène","title":"point de vue: place de tir d'aviation (#3535)","uuid":"point de vue: place de tir d'aviation"}},{"geometry":{"coordinates":[7.117411,46.76517],"type":"Point"},"type":"Feature","properties":{"typePOI":"Arène","title":"Portail de l'Abbaye d'Hauterive (#3536)","uuid":"Portail de l'Abbaye d'Hauterive"}},{"geometry":{"coordinates":[7.049957,46.767409],"type":"Point"},"type":"Feature","properties":{"typePOI":"Arène","title":"Abdominaux (#3537)","uuid":"Abdominaux"}},{"geometry":{"coordinates":[6.853363,46.847528],"type":"Point"},"type":"Feature","properties":{"typePOI":"Arène","title":"Bibliothèque d'Estavayer-le-Lac (#3538)","uuid":"Bibliothèque d'Estavayer-le-Lac"}},{"geometry":{"coordinates":[7.101233,46.806618],"type":"Point"},"type":"Feature","properties":{"typePOI":"Arène","title":"Entremêlé (#3539)","uuid":"Entremêlé"}},{"geometry":{"coordinates":[7.125673,46.931212],"type":"Point"},"type":"Feature","properties":{"typePOI":"Arène","title":"Le poisson Corpaato (#3540)","uuid":"Le poisson Corpaato"}},{"geometry":{"coordinates":[6.810414,46.837695],"type":"Point"},"type":"Feature","properties":{"typePOI":"Arène","title":"Plage en zone naturelle prioritaire (#3541)","uuid":"Plage en zone naturelle prioritaire"}},{"geometry":{"coordinates":[7.151129,46.774553],"type":"Point"},"type":"Feature","properties":{"typePOI":"Arène","title":"Saturn (#3542)","uuid":"Saturn"}},{"geometry":{"coordinates":[6.836885,46.505908],"type":"Point"},"type":"Feature","properties":{"typePOI":"Arène","title":"Cabane De Pic Nic (#3543)","uuid":"Cabane De Pic Nic"}},{"geometry":{"coordinates":[7.173081,46.81586],"type":"Point"},"type":"Feature","properties":{"typePOI":"Arène","title":"Tischtennis (#3544)","uuid":"Tischtennis"}},{"geometry":{"coordinates":[7.154078,46.911809],"type":"Point"},"type":"Feature","properties":{"typePOI":"Arène","title":"Fly Away (#3545)","uuid":"Fly Away"}},{"geometry":{"coordinates":[7.134362,46.871169],"type":"Point"},"type":"Feature","properties":{"typePOI":"Arène","title":"Place de jeux (#3546)","uuid":"Place de jeux"}},{"geometry":{"coordinates":[6.923248,46.699093],"type":"Point"},"type":"Feature","properties":{"typePOI":"Arène","title":"Fontaine J1918P (#3547)","uuid":"Fontaine J1918P"}},{"geometry":{"coordinates":[7.303278,46.829505],"type":"Point"},"type":"Feature","properties":{"typePOI":"Arène","title":"1. Kapelle im Schlosswald (#3548)","uuid":"1. Kapelle im Schlosswald"}},{"geometry":{"coordinates":[7.256677,46.796374],"type":"Point"},"type":"Feature","properties":{"typePOI":"Arène","title":"Quartierspielplatz Alterswil (#3549)","uuid":"Quartierspielplatz Alterswil"}},{"geometry":{"coordinates":[7.166427,46.804617],"type":"Point"},"type":"Feature","properties":{"typePOI":"Arène","title":"Ancien Couvent Des Augustins (#3550)","uuid":"Ancien Couvent Des Augustins"}},{"geometry":{"coordinates":[7.257095,46.874046],"type":"Point"},"type":"Feature","properties":{"typePOI":"Arène","title":"Paroramakarte Staffelsholz (#3551)","uuid":"Paroramakarte Staffelsholz"}},{"geometry":{"coordinates":[6.923743,46.603291],"type":"Point"},"type":"Feature","properties":{"typePOI":"Arène","title":"Le Sentier - La Cabane (#3552)","uuid":"Le Sentier - La Cabane"}},{"geometry":{"coordinates":[7.021388,46.736277],"type":"Point"},"type":"Feature","properties":{"typePOI":"Arène","title":"Croix Métal (#3553)","uuid":"Croix Métal"}},{"geometry":{"coordinates":[7.066458,46.856657],"type":"Point"},"type":"Feature","properties":{"typePOI":"Arène","title":"Creux-Follet (#3554)","uuid":"Creux-Follet"}},{"geometry":{"coordinates":[6.853278,46.525782],"type":"Point"},"type":"Feature","properties":{"typePOI":"Arène","title":"Gare de Bossonens (#3555)","uuid":"Gare de Bossonens"}},{"geometry":{"coordinates":[7.032379,46.769124],"type":"Point"},"type":"Feature","properties":{"typePOI":"Arène","title":"Croix Du Croisement (#3556)","uuid":"Croix Du Croisement"}},{"geometry":{"coordinates":[7.118563,46.964468],"type":"Point"},"type":"Feature","properties":{"typePOI":"Arène","title":"Hôtel de la Gare (#3557)","uuid":"Hôtel de la Gare"}},{"geometry":{"coordinates":[7.11181,46.95999],"type":"Point"},"type":"Feature","properties":{"typePOI":"Arène","title":"La Petite Chapelle (#3558)","uuid":"La Petite Chapelle"}},{"geometry":{"coordinates":[7.208142,46.997898],"type":"Point"},"type":"Feature","properties":{"typePOI":"Arène","title":"1949 Brunnen (#3559)","uuid":"1949 Brunnen"}},{"geometry":{"coordinates":[6.879694,46.657544],"type":"Point"},"type":"Feature","properties":{"typePOI":"Arène","title":"Sivirez Église Catholique (#3560)","uuid":"Sivirez Église Catholique"}},{"geometry":{"coordinates":[7.03715,46.773616],"type":"Point"},"type":"Feature","properties":{"typePOI":"Arène","title":"Place de jeu (#3561)","uuid":"Place de jeu"}},{"geometry":{"coordinates":[7.119265,46.962809],"type":"Point"},"type":"Feature","properties":{"typePOI":"Arène","title":"Le Renard (#3562)","uuid":"Le Renard"}},{"geometry":{"coordinates":[7.285931,46.742041],"type":"Point"},"type":"Feature","properties":{"typePOI":"Arène","title":"Kirche Plaffeien (#3563)","uuid":"Kirche Plaffeien"}},{"geometry":{"coordinates":[6.800802,46.826508],"type":"Point"},"type":"Feature","properties":{"typePOI":"Arène","title":"La Clairière (#3564)","uuid":"La Clairière"}},{"geometry":{"coordinates":[7.162668,46.619214],"type":"Point"},"type":"Feature","properties":{"typePOI":"Arène","title":"Eglise de Charmey (#3565)","uuid":"Eglise de Charmey"}},{"geometry":{"coordinates":[7.082292,46.742231],"type":"Point"},"type":"Feature","properties":{"typePOI":"Arène","title":"Administration communale de Magnedens (#3566)","uuid":"Administration communale de Magnedens"}},{"geometry":{"coordinates":[7.122591,46.928936],"type":"Point"},"type":"Feature","properties":{"typePOI":"Arène","title":"Kulturzentrum Murten (#3567)","uuid":"Kulturzentrum Murten"}},{"geometry":{"coordinates":[7.325191,46.865314],"type":"Point"},"type":"Feature","properties":{"typePOI":"Arène","title":"Vitaparcours 2 Uebersdorf (#3568)","uuid":"Vitaparcours 2 Uebersdorf"}},{"geometry":{"coordinates":[7.192296,46.769244],"type":"Point"},"type":"Feature","properties":{"typePOI":"Arène","title":"Hippolyt (#3569)","uuid":"Hippolyt"}},{"geometry":{"coordinates":[7.086731,46.757965],"type":"Point"},"type":"Feature","properties":{"typePOI":"Arène","title":"Église d'Ecuvillens (#3570)","uuid":"Église d'Ecuvillens"}},{"geometry":{"coordinates":[7.310008,46.865753],"type":"Point"},"type":"Feature","properties":{"typePOI":"Arène","title":"Post (#3571)","uuid":"Post"}},{"geometry":{"coordinates":[7.107018,46.793827],"type":"Point"},"type":"Feature","properties":{"typePOI":"Arène","title":"Collection Mural (#3572)","uuid":"Collection Mural"}},{"geometry":{"coordinates":[7.080535,46.693785],"type":"Point"},"type":"Feature","properties":{"typePOI":"Arène","title":"La Fontanna 1986 (#3573)","uuid":"La Fontanna 1986"}},{"geometry":{"coordinates":[7.14757,46.811092],"type":"Point"},"type":"Feature","properties":{"typePOI":"Arène","title":"Clocher de Ste-Thérèse (#3574)","uuid":"Clocher de Ste-Thérèse"}},{"geometry":{"coordinates":[7.265606,46.7625],"type":"Point"},"type":"Feature","properties":{"typePOI":"Arène","title":"Vitaparcours Posten 9 (#3575)","uuid":"Vitaparcours Posten 9"}},{"geometry":{"coordinates":[7.324455,46.869033],"type":"Point"},"type":"Feature","properties":{"typePOI":"Arène","title":"Vitaparcours 5 Uebersdorf (#3576)","uuid":"Vitaparcours 5 Uebersdorf"}},{"geometry":{"coordinates":[7.037311,46.562018],"type":"Point"},"type":"Feature","properties":{"typePOI":"Arène","title":"Lieu De Recueillement (#3577)","uuid":"Lieu De Recueillement"}},{"geometry":{"coordinates":[7.099939,46.9199],"type":"Point"},"type":"Feature","properties":{"typePOI":"Arène","title":"Victoriam (#3578)","uuid":"Victoriam"}},{"geometry":{"coordinates":[7.139,46.800635],"type":"Point"},"type":"Feature","properties":{"typePOI":"Arène","title":"Le Bouclier Maya (#3579)","uuid":"Le Bouclier Maya"}},{"geometry":{"coordinates":[7.241163,46.885253],"type":"Point"},"type":"Feature","properties":{"typePOI":"Arène","title":"Old Cannon (#3580)","uuid":"Old Cannon"}},{"geometry":{"coordinates":[7.179429,46.748045],"type":"Point"},"type":"Feature","properties":{"typePOI":"Arène","title":"Aire de jeux et jardim du mouret (#3581)","uuid":"Aire de jeux et jardim du mouret"}},{"geometry":{"coordinates":[7.18924,46.891376],"type":"Point"},"type":"Feature","properties":{"typePOI":"Arène","title":"Station 9 (#3582)","uuid":"Station 9"}},{"geometry":{"coordinates":[6.969873,46.792563],"type":"Point"},"type":"Feature","properties":{"typePOI":"Arène","title":"Église Mannens (#3583)","uuid":"Église Mannens"}},{"geometry":{"coordinates":[6.980582,46.889894],"type":"Point"},"type":"Feature","properties":{"typePOI":"Arène","title":"Roi Sur La Croix (#3584)","uuid":"Roi Sur La Croix"}},{"geometry":{"coordinates":[7.17513,46.812767],"type":"Point"},"type":"Feature","properties":{"typePOI":"Arène","title":"Toboggan bossu (#3585)","uuid":"Toboggan bossu"}},{"geometry":{"coordinates":[7.116654,46.928075],"type":"Point"},"type":"Feature","properties":{"typePOI":"Arène","title":"Bornellum Superior (#3586)","uuid":"Bornellum Superior"}},{"geometry":{"coordinates":[7.277637,46.76191],"type":"Point"},"type":"Feature","properties":{"typePOI":"Arène","title":"Wegkreuz (#3587)","uuid":"Wegkreuz"}},{"geometry":{"coordinates":[7.088555,46.681045],"type":"Point"},"type":"Feature","properties":{"typePOI":"Arène","title":"FC Gumefens (#3588)","uuid":"FC Gumefens"}},{"geometry":{"coordinates":[7.111914,46.833457],"type":"Point"},"type":"Feature","properties":{"typePOI":"Arène","title":"Vieux Paysan (#3589)","uuid":"Vieux Paysan"}},{"geometry":{"coordinates":[7.019999,46.66921],"type":"Point"},"type":"Feature","properties":{"typePOI":"Arène","title":"Le Cochon Sac Et Balais (#3590)","uuid":"Le Cochon Sac Et Balais"}},{"geometry":{"coordinates":[7.121716,46.934428],"type":"Point"},"type":"Feature","properties":{"typePOI":"Arène","title":"Poisson Brillant (#3591)","uuid":"Poisson Brillant"}},{"geometry":{"coordinates":[7.325361,46.889452],"type":"Point"},"type":"Feature","properties":{"typePOI":"Arène","title":"Dreifaltigkeitssäule (#3592)","uuid":"Dreifaltigkeitssäule"}},{"geometry":{"coordinates":[7.166478,46.807081],"type":"Point"},"type":"Feature","properties":{"typePOI":"Arène","title":"Chez Bobonne (#3593)","uuid":"Chez Bobonne"}},{"geometry":{"coordinates":[6.810996,46.827111],"type":"Point"},"type":"Feature","properties":{"typePOI":"Arène","title":"Croix 1944 (#3594)","uuid":"Croix 1944"}},{"geometry":{"coordinates":[7.0731,46.658869],"type":"Point"},"type":"Feature","properties":{"typePOI":"Arène","title":"La Blanche Église (#3595)","uuid":"La Blanche Église"}},{"geometry":{"coordinates":[7.059812,46.627129],"type":"Point"},"type":"Feature","properties":{"typePOI":"Arène","title":"Le marbrier assis (#3596)","uuid":"Le marbrier assis"}},{"geometry":{"coordinates":[6.91813,46.693412],"type":"Point"},"type":"Feature","properties":{"typePOI":"Arène","title":"vitro parcours Romont: sentier du verre, suite (#3597)","uuid":"vitro parcours Romont: sentier du verre, suite"}},{"geometry":{"coordinates":[6.905011,46.520679],"type":"Point"},"type":"Feature","properties":{"typePOI":"Arène","title":"Menhir Percé (#3598)","uuid":"Menhir Percé"}},{"geometry":{"coordinates":[7.080578,46.778527],"type":"Point"},"type":"Feature","properties":{"typePOI":"Arène","title":"Le Grand Ours (#3599)","uuid":"Le Grand Ours"}},{"geometry":{"coordinates":[7.041388,46.815535],"type":"Point"},"type":"Feature","properties":{"typePOI":"Arène","title":"Garfield (#3600)","uuid":"Garfield"}},{"geometry":{"coordinates":[6.848501,46.853616],"type":"Point"},"type":"Feature","properties":{"typePOI":"Arène","title":"De La Rose Minigolf (#3601)","uuid":"De La Rose Minigolf"}},{"geometry":{"coordinates":[6.817603,46.838249],"type":"Point"},"type":"Feature","properties":{"typePOI":"Arène","title":"Chasse au Sanglier Info-Point (#3602)","uuid":"Chasse au Sanglier Info-Point"}},{"geometry":{"coordinates":[7.100783,46.719956],"type":"Point"},"type":"Feature","properties":{"typePOI":"Arène","title":"Eglise de Rossens (#3603)","uuid":"Eglise de Rossens"}},{"geometry":{"coordinates":[7.25917,46.795387],"type":"Point"},"type":"Feature","properties":{"typePOI":"Arène","title":"Kirchenbrunnen (#3604)","uuid":"Kirchenbrunnen"}},{"geometry":{"coordinates":[7.165441,46.773838],"type":"Point"},"type":"Feature","properties":{"typePOI":"Arène","title":"Place de jeux du Confin (#3605)","uuid":"Place de jeux du Confin"}},{"geometry":{"coordinates":[7.0909,46.913703],"type":"Point"},"type":"Feature","properties":{"typePOI":"Arène","title":"De Castella-Platz (#3606)","uuid":"De Castella-Platz"}},{"geometry":{"coordinates":[7.169856,46.791245],"type":"Point"},"type":"Feature","properties":{"typePOI":"Arène","title":"Forêt et eau potable (#3607)","uuid":"Forêt et eau potable"}},{"geometry":{"coordinates":[7.1306,46.949429],"type":"Point"},"type":"Feature","properties":{"typePOI":"Arène","title":"Aussichtsturm Chablais (#3608)","uuid":"Aussichtsturm Chablais"}},{"geometry":{"coordinates":[7.179267,46.806104],"type":"Point"},"type":"Feature","properties":{"typePOI":"Arène","title":"Quatier Spielplatz (#3609)","uuid":"Quatier Spielplatz"}},{"geometry":{"coordinates":[7.223909,46.840723],"type":"Point"},"type":"Feature","properties":{"typePOI":"Arène","title":"Kreuz in Ried (#3610)","uuid":"Kreuz in Ried"}},{"geometry":{"coordinates":[7.008197,46.664243],"type":"Point"},"type":"Feature","properties":{"typePOI":"Arène","title":"Bienvenue À La Forêt (#3611)","uuid":"Bienvenue À La Forêt"}},{"geometry":{"coordinates":[6.918403,46.695557],"type":"Point"},"type":"Feature","properties":{"typePOI":"Arène","title":"Romont Church (#3612)","uuid":"Romont Church"}},{"geometry":{"coordinates":[7.161197,46.775794],"type":"Point"},"type":"Feature","properties":{"typePOI":"Arène","title":"Le Guitariste (#3613)","uuid":"Le Guitariste"}},{"geometry":{"coordinates":[7.113159,46.843121],"type":"Point"},"type":"Feature","properties":{"typePOI":"Arène","title":"Centre Forestier La Corbaz (#3614)","uuid":"Centre Forestier La Corbaz"}},{"geometry":{"coordinates":[6.88884,46.813502],"type":"Point"},"type":"Feature","properties":{"typePOI":"Arène","title":"Cugy FR Playground (#3615)","uuid":"Cugy FR Playground"}},{"geometry":{"coordinates":[6.848885,46.854333],"type":"Point"},"type":"Feature","properties":{"typePOI":"Arène","title":"Les Frogs du Club de Pétanque (#3616)","uuid":"Les Frogs du Club de Pétanque"}},{"geometry":{"coordinates":[7.276091,46.841034],"type":"Point"},"type":"Feature","properties":{"typePOI":"Arène","title":"Jakobs Kapelle (#3617)","uuid":"Jakobs Kapelle"}},{"geometry":{"coordinates":[7.250827,46.818203],"type":"Point"},"type":"Feature","properties":{"typePOI":"Arène","title":"Hl. Sebastians Kapelle (#3618)","uuid":"Hl. Sebastians Kapelle"}},{"geometry":{"coordinates":[7.179912,46.943825],"type":"Point"},"type":"Feature","properties":{"typePOI":"Arène","title":"Fasshäuschen mit Adler (#3619)","uuid":"Fasshäuschen mit Adler"}},{"geometry":{"coordinates":[7.313574,46.891492],"type":"Point"},"type":"Feature","properties":{"typePOI":"Arène","title":"Sense Holzglockenturm (#3620)","uuid":"Sense Holzglockenturm"}},{"geometry":{"coordinates":[7.149227,46.780077],"type":"Point"},"type":"Feature","properties":{"typePOI":"Arène","title":"Marly Le Petit (#3621)","uuid":"Marly Le Petit"}},{"geometry":{"coordinates":[7.027599,46.802866],"type":"Point"},"type":"Feature","properties":{"typePOI":"Arène","title":"Poisson Ancre (#3622)","uuid":"Poisson Ancre"}},{"geometry":{"coordinates":[7.228206,46.89415],"type":"Point"},"type":"Feature","properties":{"typePOI":"Arène","title":"Kirche Bösingen (#3623)","uuid":"Kirche Bösingen"}},{"geometry":{"coordinates":[6.827789,46.832926],"type":"Point"},"type":"Feature","properties":{"typePOI":"Arène","title":"Nouvelle fontaine du tilleul (#3624)","uuid":"Nouvelle fontaine du tilleul"}},{"geometry":{"coordinates":[6.786427,46.816951],"type":"Point"},"type":"Feature","properties":{"typePOI":"Arène","title":"Gare de Cheyres (#3625)","uuid":"Gare de Cheyres"}},{"geometry":{"coordinates":[7.187826,46.891251],"type":"Point"},"type":"Feature","properties":{"typePOI":"Arène","title":"Station 11 (#3626)","uuid":"Station 11"}},{"geometry":{"coordinates":[7.152489,46.799563],"type":"Point"},"type":"Feature","properties":{"typePOI":"Arène","title":"Simplon Invader (#3627)","uuid":"Simplon Invader"}},{"geometry":{"coordinates":[7.111351,46.619711],"type":"Point"},"type":"Feature","properties":{"typePOI":"Arène","title":"Place de jeux Denis (#3628)","uuid":"Place de jeux Denis"}},{"geometry":{"coordinates":[7.114687,46.797971],"type":"Point"},"type":"Feature","properties":{"typePOI":"Arène","title":"Scène Forestière (#3629)","uuid":"Scène Forestière"}},{"geometry":{"coordinates":[7.274094,46.736509],"type":"Point"},"type":"Feature","properties":{"typePOI":"Arène","title":"Wegkreuz Plötscha (#3630)","uuid":"Wegkreuz Plötscha"}},{"geometry":{"coordinates":[7.073246,46.582579],"type":"Point"},"type":"Feature","properties":{"typePOI":"Arène","title":"Gare De Gruyères (#3631)","uuid":"Gare De Gruyères"}},{"geometry":{"coordinates":[7.117204,46.930245],"type":"Point"},"type":"Feature","properties":{"typePOI":"Arène","title":"Goldenes Schiff (#3632)","uuid":"Goldenes Schiff"}},{"geometry":{"coordinates":[7.083125,46.540744],"type":"Point"},"type":"Feature","properties":{"typePOI":"Arène","title":"Memorial Mission Catholique (#3633)","uuid":"Memorial Mission Catholique"}},{"geometry":{"coordinates":[6.993824,46.770398],"type":"Point"},"type":"Feature","properties":{"typePOI":"Arène","title":"Les Ours Corserey (#3634)","uuid":"Les Ours Corserey"}},{"geometry":{"coordinates":[7.064718,46.656647],"type":"Point"},"type":"Feature","properties":{"typePOI":"Arène","title":"Place Bernard Romanens (#3635)","uuid":"Place Bernard Romanens"}},{"geometry":{"coordinates":[7.105973,46.817009],"type":"Point"},"type":"Feature","properties":{"typePOI":"Arène","title":"Gare Belfaux CFF (#3636)","uuid":"Gare Belfaux CFF"}},{"geometry":{"coordinates":[7.221832,46.983611],"type":"Point"},"type":"Feature","properties":{"typePOI":"Arène","title":"Waldfriedensbrünnli (#3637)","uuid":"Waldfriedensbrünnli"}},{"geometry":{"coordinates":[7.010123,46.665059],"type":"Point"},"type":"Feature","properties":{"typePOI":"Arène","title":"Le Pinguin Solar (#3638)","uuid":"Le Pinguin Solar"}},{"geometry":{"coordinates":[7.103577,46.67089],"type":"Point"},"type":"Feature","properties":{"typePOI":"Arène","title":"Vers le soir (#3639)","uuid":"Vers le soir"}},{"geometry":{"coordinates":[7.337292,46.854998],"type":"Point"},"type":"Feature","properties":{"typePOI":"Arène","title":"Kapelle Hostettle-Lärchenberg (#3640)","uuid":"Kapelle Hostettle-Lärchenberg"}},{"geometry":{"coordinates":[7.021568,46.623563],"type":"Point"},"type":"Feature","properties":{"typePOI":"Arène","title":"croix de piques (#3641)","uuid":"croix de piques"}},{"geometry":{"coordinates":[7.182303,46.890604],"type":"Point"},"type":"Feature","properties":{"typePOI":"Arène","title":"Station 14 (#3642)","uuid":"Station 14"}},{"geometry":{"coordinates":[7.051889,46.762603],"type":"Point"},"type":"Feature","properties":{"typePOI":"Arène","title":"Croix Droite (#3643)","uuid":"Croix Droite"}},{"geometry":{"coordinates":[7.041472,46.785141],"type":"Point"},"type":"Feature","properties":{"typePOI":"Arène","title":"Fontaine 2003 (#3644)","uuid":"Fontaine 2003"}},{"geometry":{"coordinates":[7.018942,46.61657],"type":"Point"},"type":"Feature","properties":{"typePOI":"Arène","title":"Eglise De Vuadens (#3645)","uuid":"Eglise De Vuadens"}},{"geometry":{"coordinates":[7.118417,46.929157],"type":"Point"},"type":"Feature","properties":{"typePOI":"Arène","title":"Porte de Berne (#3646)","uuid":"Porte de Berne"}},{"geometry":{"coordinates":[6.874962,46.658739],"type":"Point"},"type":"Feature","properties":{"typePOI":"Arène","title":"Foot Fontaine (#3647)","uuid":"Foot Fontaine"}},{"geometry":{"coordinates":[7.081005,46.583418],"type":"Point"},"type":"Feature","properties":{"typePOI":"Arène","title":"Fontaine (#3648)","uuid":"Fontaine"}},{"geometry":{"coordinates":[7.248451,46.854655],"type":"Point"},"type":"Feature","properties":{"typePOI":"Arène","title":"RF Fountain (#3649)","uuid":"RF Fountain"}},{"geometry":{"coordinates":[6.993899,46.717435],"type":"Point"},"type":"Feature","properties":{"typePOI":"Arène","title":"Église D'Orsonnens (#3650)","uuid":"Église D'Orsonnens"}},{"geometry":{"coordinates":[7.272568,46.728248],"type":"Point"},"type":"Feature","properties":{"typePOI":"Arène","title":"Vitaparcours Posten 5 (#3651)","uuid":"Vitaparcours Posten 5"}},{"geometry":{"coordinates":[7.002164,46.756323],"type":"Point"},"type":"Feature","properties":{"typePOI":"Arène","title":"Metal Circle (#3652)","uuid":"Metal Circle"}},{"geometry":{"coordinates":[6.907508,46.710537],"type":"Point"},"type":"Feature","properties":{"typePOI":"Arène","title":"Le Relais 1978 (Cabane de la Mycologie) (#3653)","uuid":"Le Relais 1978 (Cabane de la Mycologie)"}},{"geometry":{"coordinates":[7.05831,46.620275],"type":"Point"},"type":"Feature","properties":{"typePOI":"Arène","title":"Église Saint-Pierre-aux-liens (#3654)","uuid":"Église Saint-Pierre-aux-liens"}},{"geometry":{"coordinates":[7.137444,46.728453],"type":"Point"},"type":"Feature","properties":{"typePOI":"Arène","title":"Le clocher (#3655)","uuid":"Le clocher"}},{"geometry":{"coordinates":[7.260503,46.822415],"type":"Point"},"type":"Feature","properties":{"typePOI":"Arène","title":"Gemeindehaus St. Antoni (#3656)","uuid":"Gemeindehaus St. Antoni"}},{"geometry":{"coordinates":[7.097218,46.952496],"type":"Point"},"type":"Feature","properties":{"typePOI":"Arène","title":"Bel-air (#3657)","uuid":"Bel-air"}},{"geometry":{"coordinates":[7.061801,46.767585],"type":"Point"},"type":"Feature","properties":{"typePOI":"Arène","title":"Vineet\u2019s place (#3658)","uuid":"Vineet\u2019s place"}},{"geometry":{"coordinates":[7.252596,46.861844],"type":"Point"},"type":"Feature","properties":{"typePOI":"Arène","title":"Fabromont (#3659)","uuid":"Fabromont"}},{"geometry":{"coordinates":[7.112967,46.92303],"type":"Point"},"type":"Feature","properties":{"typePOI":"Arène","title":"Zeus Fountain (#3660)","uuid":"Zeus Fountain"}},{"geometry":{"coordinates":[7.103229,46.822769],"type":"Point"},"type":"Feature","properties":{"typePOI":"Arène","title":"Le Laitier (#3661)","uuid":"Le Laitier"}},{"geometry":{"coordinates":[7.103012,46.819628],"type":"Point"},"type":"Feature","properties":{"typePOI":"Arène","title":"Place de jeux Champ Bonjard (#3662)","uuid":"Place de jeux Champ Bonjard"}},{"geometry":{"coordinates":[7.118598,46.917125],"type":"Point"},"type":"Feature","properties":{"typePOI":"Arène","title":"Schlacht Denkmal (#3663)","uuid":"Schlacht Denkmal"}},{"geometry":{"coordinates":[7.285124,46.6655],"type":"Point"},"type":"Feature","properties":{"typePOI":"Arène","title":"Schwarzsee Lions (#3664)","uuid":"Schwarzsee Lions"}},{"geometry":{"coordinates":[7.114946,46.839147],"type":"Point"},"type":"Feature","properties":{"typePOI":"Arène","title":"Chapelle de La Corbaz (#3665)","uuid":"Chapelle de La Corbaz"}},{"geometry":{"coordinates":[7.099456,46.785778],"type":"Point"},"type":"Feature","properties":{"typePOI":"Arène","title":"Dancing Modern Statue (#3666)","uuid":"Dancing Modern Statue"}},{"geometry":{"coordinates":[7.229922,46.893282],"type":"Point"},"type":"Feature","properties":{"typePOI":"Arène","title":"The Roman Fountain (#3667)","uuid":"The Roman Fountain"}},{"geometry":{"coordinates":[6.845397,46.642429],"type":"Point"},"type":"Feature","properties":{"typePOI":"Arène","title":"Picture On Wall (#3668)","uuid":"Picture On Wall"}},{"geometry":{"coordinates":[7.104033,46.718821],"type":"Point"},"type":"Feature","properties":{"typePOI":"Arène","title":"Ancienne chapelle de Rossens (#3669)","uuid":"Ancienne chapelle de Rossens"}},{"geometry":{"coordinates":[7.138055,46.941768],"type":"Point"},"type":"Feature","properties":{"typePOI":"Arène","title":"Pink Metal Car (#3670)","uuid":"Pink Metal Car"}},{"geometry":{"coordinates":[7.0947,46.741274],"type":"Point"},"type":"Feature","properties":{"typePOI":"Arène","title":"Bloc De Tuff (#3671)","uuid":"Bloc De Tuff"}},{"geometry":{"coordinates":[7.202195,46.932814],"type":"Point"},"type":"Feature","properties":{"typePOI":"Arène","title":"Wagenrad Brunnen (#3672)","uuid":"Wagenrad Brunnen"}},{"geometry":{"coordinates":[7.162201,46.811903],"type":"Point"},"type":"Feature","properties":{"typePOI":"Arène","title":"Boulodrome (#3673)","uuid":"Boulodrome"}},{"geometry":{"coordinates":[7.064863,46.766008],"type":"Point"},"type":"Feature","properties":{"typePOI":"Arène","title":"Gare de Neyruz (#3674)","uuid":"Gare de Neyruz"}},{"geometry":{"coordinates":[7.149869,46.912723],"type":"Point"},"type":"Feature","properties":{"typePOI":"Arène","title":"Gemeindeschreiberei Salvenach (#3675)","uuid":"Gemeindeschreiberei Salvenach"}},{"geometry":{"coordinates":[7.117383,46.864622],"type":"Point"},"type":"Feature","properties":{"typePOI":"Arène","title":"Rocher De La Communal (#3676)","uuid":"Rocher De La Communal"}},{"geometry":{"coordinates":[6.890862,46.81467],"type":"Point"},"type":"Feature","properties":{"typePOI":"Arène","title":"Fontaine Cugy FR (#3677)","uuid":"Fontaine Cugy FR"}},{"geometry":{"coordinates":[7.150842,46.821481],"type":"Point"},"type":"Feature","properties":{"typePOI":"Arène","title":"Conciergerie De L'ECAB (#3678)","uuid":"Conciergerie De L'ECAB"}},{"geometry":{"coordinates":[7.157429,46.622156],"type":"Point"},"type":"Feature","properties":{"typePOI":"Arène","title":"Fontaine offert par la caisse Raiffeisen (#3679)","uuid":"Fontaine offert par la caisse Raiffeisen"}},{"geometry":{"coordinates":[7.12109,46.788298],"type":"Point"},"type":"Feature","properties":{"typePOI":"Arène","title":"Vache Villars (#3680)","uuid":"Vache Villars"}},{"geometry":{"coordinates":[6.877686,46.53364],"type":"Point"},"type":"Feature","properties":{"typePOI":"Arène","title":"Croix Des Lapies (#3681)","uuid":"Croix Des Lapies"}},{"geometry":{"coordinates":[6.81219,46.834201],"type":"Point"},"type":"Feature","properties":{"typePOI":"Arène","title":"Château De Font (#3682)","uuid":"Château De Font"}},{"geometry":{"coordinates":[7.158644,46.620661],"type":"Point"},"type":"Feature","properties":{"typePOI":"Arène","title":"Chapelle blanche Charmey (#3683)","uuid":"Chapelle blanche Charmey"}},{"geometry":{"coordinates":[7.014283,46.666785],"type":"Point"},"type":"Feature","properties":{"typePOI":"Arène","title":"Perroquet Wood (#3684)","uuid":"Perroquet Wood"}},{"geometry":{"coordinates":[7.107484,46.803337],"type":"Point"},"type":"Feature","properties":{"typePOI":"Arène","title":"Banc En Rondin (#3685)","uuid":"Banc En Rondin"}},{"geometry":{"coordinates":[6.992062,46.810586],"type":"Point"},"type":"Feature","properties":{"typePOI":"Arène","title":"Église De Montagny-Les-Monts (#3686)","uuid":"Église De Montagny-Les-Monts"}},{"geometry":{"coordinates":[7.123962,46.790377],"type":"Point"},"type":"Feature","properties":{"typePOI":"Arène","title":"Statue au Lion (#3687)","uuid":"Statue au Lion"}},{"geometry":{"coordinates":[6.819344,46.825091],"type":"Point"},"type":"Feature","properties":{"typePOI":"Arène","title":"Posten 5 Landwirtschaftspfad (#3688)","uuid":"Posten 5 Landwirtschaftspfad"}},{"geometry":{"coordinates":[6.956963,46.720142],"type":"Point"},"type":"Feature","properties":{"typePOI":"Arène","title":"Église De Villaz-saint-pierre (#3689)","uuid":"Église De Villaz-saint-pierre"}},{"geometry":{"coordinates":[7.06613,46.721918],"type":"Point"},"type":"Feature","properties":{"typePOI":"Arène","title":"Eglise de Farvagny (#3690)","uuid":"Eglise de Farvagny"}},{"geometry":{"coordinates":[7.094985,46.785894],"type":"Point"},"type":"Feature","properties":{"typePOI":"Arène","title":"Laiterie De Matran (#3691)","uuid":"Laiterie De Matran"}},{"geometry":{"coordinates":[6.836704,46.582798],"type":"Point"},"type":"Feature","properties":{"typePOI":"Arène","title":"Croix D'entrée De Chapelle (#3692)","uuid":"Croix D'entrée De Chapelle"}},{"geometry":{"coordinates":[7.001127,46.548632],"type":"Point"},"type":"Feature","properties":{"typePOI":"Arène","title":"Croix du chemin (#3693)","uuid":"Croix du chemin"}},{"geometry":{"coordinates":[7.196644,46.770163],"type":"Point"},"type":"Feature","properties":{"typePOI":"Arène","title":"Croix De La Fromagerie (#3694)","uuid":"Croix De La Fromagerie"}},{"geometry":{"coordinates":[7.151355,46.803172],"type":"Point"},"type":"Feature","properties":{"typePOI":"Arène","title":"Gare Fribourg \/ Freiburg (#3695)","uuid":"Gare Fribourg \/ Freiburg"}},{"geometry":{"coordinates":[7.163446,46.792477],"type":"Point"},"type":"Feature","properties":{"typePOI":"Arène","title":"Réserve Naturelle (#3696)","uuid":"Réserve Naturelle"}},{"geometry":{"coordinates":[7.311002,46.865953],"type":"Point"},"type":"Feature","properties":{"typePOI":"Arène","title":"Schloss Ueberstorf (#3697)","uuid":"Schloss Ueberstorf"}},{"geometry":{"coordinates":[6.897945,46.537637],"type":"Point"},"type":"Feature","properties":{"typePOI":"Arène","title":"Centre sportif (#3698)","uuid":"Centre sportif"}},{"geometry":{"coordinates":[7.165735,46.804202],"type":"Point"},"type":"Feature","properties":{"typePOI":"Arène","title":"Fontaine Poissons (#3699)","uuid":"Fontaine Poissons"}},{"geometry":{"coordinates":[7.12559,46.930159],"type":"Point"},"type":"Feature","properties":{"typePOI":"Arène","title":"Sangoku Graffiti (#3700)","uuid":"Sangoku Graffiti"}},{"geometry":{"coordinates":[7.125729,46.954625],"type":"Point"},"type":"Feature","properties":{"typePOI":"Arène","title":"Wildschwein im Walde (#3701)","uuid":"Wildschwein im Walde"}},{"geometry":{"coordinates":[6.8008,46.8173],"type":"Point"},"type":"Feature","properties":{"typePOI":"Arène","title":"Notre-Dame de Bonne Fontaine (#3702)","uuid":"Notre-Dame de Bonne Fontaine"}},{"geometry":{"coordinates":[6.803973,46.827301],"type":"Point"},"type":"Feature","properties":{"typePOI":"Arène","title":"Point de Vue Grande Cariçaie (#3703)","uuid":"Point de Vue Grande Cariçaie"}},{"geometry":{"coordinates":[7.086411,46.95382],"type":"Point"},"type":"Feature","properties":{"typePOI":"Arène","title":"Roches Grises (#3704)","uuid":"Roches Grises"}},{"geometry":{"coordinates":[7.117085,46.793741],"type":"Point"},"type":"Feature","properties":{"typePOI":"Arène","title":"Lapin Végétal (#3705)","uuid":"Lapin Végétal"}},{"geometry":{"coordinates":[7.116797,46.923708],"type":"Point"},"type":"Feature","properties":{"typePOI":"Arène","title":"rostige Eiche (#3706)","uuid":"rostige Eiche"}},{"geometry":{"coordinates":[7.276118,46.663981],"type":"Point"},"type":"Feature","properties":{"typePOI":"Arène","title":"Kletterwand - Campus Schwarzsee (#3707)","uuid":"Kletterwand - Campus Schwarzsee"}},{"geometry":{"coordinates":[6.84575,46.848283],"type":"Point"},"type":"Feature","properties":{"typePOI":"Arène","title":"Fleur De Lys (#3708)","uuid":"Fleur De Lys"}},{"geometry":{"coordinates":[7.262135,46.793901],"type":"Point"},"type":"Feature","properties":{"typePOI":"Arène","title":"Wandtattoo (#3709)","uuid":"Wandtattoo"}},{"geometry":{"coordinates":[6.899716,46.691852],"type":"Point"},"type":"Feature","properties":{"typePOI":"Arène","title":"Chris de Billens (#3710)","uuid":"Chris de Billens"}},{"geometry":{"coordinates":[7.108262,46.824456],"type":"Point"},"type":"Feature","properties":{"typePOI":"Arène","title":"Tête de Bouddha (#3711)","uuid":"Tête de Bouddha"}},{"geometry":{"coordinates":[7.065641,46.609987],"type":"Point"},"type":"Feature","properties":{"typePOI":"Arène","title":"Letter M (#3712)","uuid":"Letter M"}},{"geometry":{"coordinates":[7.286269,46.757757],"type":"Point"},"type":"Feature","properties":{"typePOI":"Arène","title":"Willkommen im Sense-Oberland (#3713)","uuid":"Willkommen im Sense-Oberland"}},{"geometry":{"coordinates":[7.137609,46.938104],"type":"Point"},"type":"Feature","properties":{"typePOI":"Arène","title":"Botanischer Weg (#3714)","uuid":"Botanischer Weg"}},{"geometry":{"coordinates":[7.003069,46.76014],"type":"Point"},"type":"Feature","properties":{"typePOI":"Arène","title":"Église De Lentigny (#3715)","uuid":"Église De Lentigny"}},{"geometry":{"coordinates":[6.995118,46.817398],"type":"Point"},"type":"Feature","properties":{"typePOI":"Arène","title":"Mobilisés (#3716)","uuid":"Mobilisés"}},{"geometry":{"coordinates":[6.912743,46.658975],"type":"Point"},"type":"Feature","properties":{"typePOI":"Arène","title":"Église De Villaraboud (#3717)","uuid":"Église De Villaraboud"}},{"geometry":{"coordinates":[6.830185,46.645579],"type":"Point"},"type":"Feature","properties":{"typePOI":"Arène","title":"Zegro Statue (#3718)","uuid":"Zegro Statue"}},{"geometry":{"coordinates":[7.069087,46.604396],"type":"Point"},"type":"Feature","properties":{"typePOI":"Arène","title":"Pont en bois naturel (#3719)","uuid":"Pont en bois naturel"}},{"geometry":{"coordinates":[7.108495,46.60711],"type":"Point"},"type":"Feature","properties":{"typePOI":"Arène","title":"Maison Cailler (#3720)","uuid":"Maison Cailler"}},{"geometry":{"coordinates":[7.217954,46.807625],"type":"Point"},"type":"Feature","properties":{"typePOI":"Arène","title":"Jesus, Jean, Marie & Marie Madeleine (#3721)","uuid":"Jesus, Jean, Marie & Marie Madeleine"}},{"geometry":{"coordinates":[7.239859,46.770198],"type":"Point"},"type":"Feature","properties":{"typePOI":"Arène","title":"Jesus sur la Croix (#3722)","uuid":"Jesus sur la Croix"}},{"geometry":{"coordinates":[7.279081,46.728286],"type":"Point"},"type":"Feature","properties":{"typePOI":"Arène","title":"Vitaparcours Posten 14 (#3723)","uuid":"Vitaparcours Posten 14"}},{"geometry":{"coordinates":[7.166955,46.912844],"type":"Point"},"type":"Feature","properties":{"typePOI":"Arène","title":"Eichen Und Biodiversität (#3724)","uuid":"Eichen Und Biodiversität"}},{"geometry":{"coordinates":[7.168072,46.802693],"type":"Point"},"type":"Feature","properties":{"typePOI":"Arène","title":"Fontaine De Moustique (#3725)","uuid":"Fontaine De Moustique"}},{"geometry":{"coordinates":[7.092556,46.859218],"type":"Point"},"type":"Feature","properties":{"typePOI":"Arène","title":"Poste 12 - Les ennemis des abeilles (#3726)","uuid":"Poste 12 - Les ennemis des abeilles"}},{"geometry":{"coordinates":[6.962655,46.71727],"type":"Point"},"type":"Feature","properties":{"typePOI":"Arène","title":"Sphère Soudée IMC (#3727)","uuid":"Sphère Soudée IMC"}},{"geometry":{"coordinates":[7.128088,46.779079],"type":"Point"},"type":"Feature","properties":{"typePOI":"Arène","title":"Eau de qualité (#3728)","uuid":"Eau de qualité"}},{"geometry":{"coordinates":[7.085199,46.539427],"type":"Point"},"type":"Feature","properties":{"typePOI":"Arène","title":"Fontaine De La Ferme De Bois (#3729)","uuid":"Fontaine De La Ferme De Bois"}},{"geometry":{"coordinates":[7.145543,46.797155],"type":"Point"},"type":"Feature","properties":{"typePOI":"Arène","title":"Le Fantôme (#3730)","uuid":"Le Fantôme"}},{"geometry":{"coordinates":[7.283378,46.610071],"type":"Point"},"type":"Feature","properties":{"typePOI":"Arène","title":"Kapelle (#3731)","uuid":"Kapelle"}},{"geometry":{"coordinates":[7.122202,46.928864],"type":"Point"},"type":"Feature","properties":{"typePOI":"Arène","title":"Sculpture Pinceaux Beaulieupark (#3732)","uuid":"Sculpture Pinceaux Beaulieupark"}},{"geometry":{"coordinates":[7.219799,46.808959],"type":"Point"},"type":"Feature","properties":{"typePOI":"Arène","title":"Natura 2007 (#3733)","uuid":"Natura 2007"}},{"geometry":{"coordinates":[7.10033,46.858418],"type":"Point"},"type":"Feature","properties":{"typePOI":"Arène","title":"Mission 1954 (#3734)","uuid":"Mission 1954"}},{"geometry":{"coordinates":[7.093417,46.801483],"type":"Point"},"type":"Feature","properties":{"typePOI":"Arène","title":"1. Mobilité (#3735)","uuid":"1. Mobilité"}},{"geometry":{"coordinates":[6.897928,46.651736],"type":"Point"},"type":"Feature","properties":{"typePOI":"Arène","title":"Wood Cross (#3736)","uuid":"Wood Cross"}},{"geometry":{"coordinates":[6.86647,46.600227],"type":"Point"},"type":"Feature","properties":{"typePOI":"Arène","title":"Mission 1953 (#3737)","uuid":"Mission 1953"}},{"geometry":{"coordinates":[6.812008,46.802425],"type":"Point"},"type":"Feature","properties":{"typePOI":"Arène","title":"Sculpture avec armoiries de 1997 (#3738)","uuid":"Sculpture avec armoiries de 1997"}},{"geometry":{"coordinates":[7.1064,46.956774],"type":"Point"},"type":"Feature","properties":{"typePOI":"Arène","title":"Office du Tourisme-Nant (#3739)","uuid":"Office du Tourisme-Nant"}},{"geometry":{"coordinates":[7.099703,46.902063],"type":"Point"},"type":"Feature","properties":{"typePOI":"Arène","title":"FC Courgevaux (#3740)","uuid":"FC Courgevaux"}},{"geometry":{"coordinates":[7.136509,46.79034],"type":"Point"},"type":"Feature","properties":{"typePOI":"Arène","title":"Cygne Du Platy (#3741)","uuid":"Cygne Du Platy"}},{"geometry":{"coordinates":[6.821708,46.835969],"type":"Point"},"type":"Feature","properties":{"typePOI":"Arène","title":"Croix de la vierge noire. 1809 (#3742)","uuid":"Croix de la vierge noire. 1809"}},{"geometry":{"coordinates":[7.126533,46.912099],"type":"Point"},"type":"Feature","properties":{"typePOI":"Arène","title":"Schloss Münchenwiler (#3743)","uuid":"Schloss Münchenwiler"}},{"geometry":{"coordinates":[7.136901,46.812723],"type":"Point"},"type":"Feature","properties":{"typePOI":"Arène","title":"Métal - Caisse Compensation (#3744)","uuid":"Métal - Caisse Compensation"}},{"geometry":{"coordinates":[7.141179,46.812469],"type":"Point"},"type":"Feature","properties":{"typePOI":"Arène","title":"Les Petits Hommes Bleus (#3745)","uuid":"Les Petits Hommes Bleus"}},{"geometry":{"coordinates":[7.264572,46.76371],"type":"Point"},"type":"Feature","properties":{"typePOI":"Arène","title":"Vitaparcours Posten 12 (#3746)","uuid":"Vitaparcours Posten 12"}},{"geometry":{"coordinates":[7.085928,46.94912],"type":"Point"},"type":"Feature","properties":{"typePOI":"Arène","title":"Fontaine Coiff'air (#3747)","uuid":"Fontaine Coiff'air"}},{"geometry":{"coordinates":[7.257321,46.861796],"type":"Point"},"type":"Feature","properties":{"typePOI":"Arène","title":"Animal Walk (#3748)","uuid":"Animal Walk"}},{"geometry":{"coordinates":[6.771619,46.810198],"type":"Point"},"type":"Feature","properties":{"typePOI":"Arène","title":"Blechmann (#3749)","uuid":"Blechmann"}},{"geometry":{"coordinates":[7.1908,46.846111],"type":"Point"},"type":"Feature","properties":{"typePOI":"Arène","title":"Church of Düdingen (#3750)","uuid":"Church of Düdingen"}},{"geometry":{"coordinates":[7.158487,46.818858],"type":"Point"},"type":"Feature","properties":{"typePOI":"Arène","title":"Croix Du Christ (#3751)","uuid":"Croix Du Christ"}},{"geometry":{"coordinates":[7.132854,46.79387],"type":"Point"},