{"features":[{"geometry":{"coordinates":[7.145552,46.803168],"type":"Point"},"type":"Feature","properties":{"typePOI":"Arène","title":"École d'ingénieurs et d'architectes de Fribourg","uuid":3108}},{"geometry":{"coordinates":[7.025266,46.863135],"type":"Point"},"type":"Feature","properties":{"typePOI":"Arène","title":"Le mini moulin de Coppet","uuid":3109}},{"geometry":{"coordinates":[7.174969,46.817021],"type":"Point"},"type":"Feature","properties":{"typePOI":"Arène","title":"Sculpture \"Le Castel\"","uuid":3110}},{"geometry":{"coordinates":[6.910233,46.687164],"type":"Point"},"type":"Feature","properties":{"typePOI":"Arène","title":"Balançoire","uuid":3111}},{"geometry":{"coordinates":[7.092295,46.571667],"type":"Point"},"type":"Feature","properties":{"typePOI":"Arène","title":"Parc Naturel régional","uuid":3112}},{"geometry":{"coordinates":[7.137614,46.821744],"type":"Point"},"type":"Feature","properties":{"typePOI":"Arène","title":"Statue En Fer Zigzag","uuid":3113}},{"geometry":{"coordinates":[6.956303,46.91895],"type":"Point"},"type":"Feature","properties":{"typePOI":"Arène","title":"Restaurant Bateau","uuid":3114}},{"geometry":{"coordinates":[6.883869,46.656341],"type":"Point"},"type":"Feature","properties":{"typePOI":"Arène","title":"Ancienne Gare De Siviriez","uuid":3115}},{"geometry":{"coordinates":[7.158976,46.793669],"type":"Point"},"type":"Feature","properties":{"typePOI":"Arène","title":"Sculptures \"Pont de Lumière\"","uuid":3116}},{"geometry":{"coordinates":[7.174354,46.810324],"type":"Point"},"type":"Feature","properties":{"typePOI":"Arène","title":"St Paul","uuid":3117}},{"geometry":{"coordinates":[7.197483,46.971865],"type":"Point"},"type":"Feature","properties":{"typePOI":"Arène","title":"Pferdeskulptur","uuid":3118}},{"geometry":{"coordinates":[7.061246,46.64055],"type":"Point"},"type":"Feature","properties":{"typePOI":"Arène","title":"Sculpture De La Saletta","uuid":3119}},{"geometry":{"coordinates":[6.926568,46.67948],"type":"Point"},"type":"Feature","properties":{"typePOI":"Arène","title":"Château De Mezieres \/ Musée Du Papier Peint","uuid":3120}},{"geometry":{"coordinates":[7.160101,46.812894],"type":"Point"},"type":"Feature","properties":{"typePOI":"Arène","title":"Ave Maria - Memorare 1880","uuid":3121}},{"geometry":{"coordinates":[7.106877,46.752726],"type":"Point"},"type":"Feature","properties":{"typePOI":"Arène","title":"Les robins des bois","uuid":3122}},{"geometry":{"coordinates":[7.023231,46.670542],"type":"Point"},"type":"Feature","properties":{"typePOI":"Arène","title":"Titeuf Wood","uuid":3123}},{"geometry":{"coordinates":[7.258003,46.825161],"type":"Point"},"type":"Feature","properties":{"typePOI":"Arène","title":"Felsenkapelle","uuid":3124}},{"geometry":{"coordinates":[7.057061,46.617311],"type":"Point"},"type":"Feature","properties":{"typePOI":"Arène","title":"Fontrush","uuid":3125}},{"geometry":{"coordinates":[6.845808,46.843608],"type":"Point"},"type":"Feature","properties":{"typePOI":"Arène","title":"Spielplatz mit Tischtennistisch","uuid":3126}},{"geometry":{"coordinates":[7.036124,46.785293],"type":"Point"},"type":"Feature","properties":{"typePOI":"Arène","title":"Pla ce de jeu","uuid":3127}},{"geometry":{"coordinates":[7.122991,46.871077],"type":"Point"},"type":"Feature","properties":{"typePOI":"Arène","title":"Fleur Solaire","uuid":3128}},{"geometry":{"coordinates":[7.140509,46.790794],"type":"Point"},"type":"Feature","properties":{"typePOI":"Arène","title":"Hotel Du Moleson","uuid":3129}},{"geometry":{"coordinates":[7.094373,46.603372],"type":"Point"},"type":"Feature","properties":{"typePOI":"Arène","title":"Bienvenue à Broc","uuid":3130}},{"geometry":{"coordinates":[7.329609,46.888307],"type":"Point"},"type":"Feature","properties":{"typePOI":"Arène","title":"Safari Skulpturen","uuid":3131}},{"geometry":{"coordinates":[6.97349,46.700911],"type":"Point"},"type":"Feature","properties":{"typePOI":"Arène","title":"Boule De Pierre","uuid":3132}},{"geometry":{"coordinates":[7.150928,46.813515],"type":"Point"},"type":"Feature","properties":{"typePOI":"Arène","title":"Fontaine du Levant","uuid":3133}},{"geometry":{"coordinates":[7.201713,46.986192],"type":"Point"},"type":"Feature","properties":{"typePOI":"Arène","title":"Papiliorama","uuid":3134}},{"geometry":{"coordinates":[7.236311,46.900052],"type":"Point"},"type":"Feature","properties":{"typePOI":"Arène","title":"Laupen, Tower of Power","uuid":3135}},{"geometry":{"coordinates":[6.980174,46.818799],"type":"Point"},"type":"Feature","properties":{"typePOI":"Arène","title":"Jeu de lapin","uuid":3136}},{"geometry":{"coordinates":[7.002702,46.700614],"type":"Point"},"type":"Feature","properties":{"typePOI":"Arène","title":"PYROTESS Cross","uuid":3137}},{"geometry":{"coordinates":[7.101382,46.602709],"type":"Point"},"type":"Feature","properties":{"typePOI":"Arène","title":"Fresque","uuid":3138}},{"geometry":{"coordinates":[6.85006,46.51002],"type":"Point"},"type":"Feature","properties":{"typePOI":"Arène","title":"Sculpture métallique","uuid":3139}},{"geometry":{"coordinates":[7.224104,46.983267],"type":"Point"},"type":"Feature","properties":{"typePOI":"Arène","title":"VitaParcours Nr. 4","uuid":3140}},{"geometry":{"coordinates":[7.082467,46.583967],"type":"Point"},"type":"Feature","properties":{"typePOI":"Arène","title":"Museum Giger","uuid":3141}},{"geometry":{"coordinates":[6.846759,46.849098],"type":"Point"},"type":"Feature","properties":{"typePOI":"Arène","title":"Hommage Aux Soldats Des Deux Guerres","uuid":3142}},{"geometry":{"coordinates":[7.060466,46.629703],"type":"Point"},"type":"Feature","properties":{"typePOI":"Arène","title":"Raboud Group","uuid":3143}},{"geometry":{"coordinates":[7.200247,46.835044],"type":"Point"},"type":"Feature","properties":{"typePOI":"Arène","title":"Wegkreutz Jetschwil","uuid":3144}},{"geometry":{"coordinates":[7.08271,46.584492],"type":"Point"},"type":"Feature","properties":{"typePOI":"Arène","title":"Renaison","uuid":3145}},{"geometry":{"coordinates":[7.063588,46.623318],"type":"Point"},"type":"Feature","properties":{"typePOI":"Arène","title":"Place de jeu","uuid":3146}},{"geometry":{"coordinates":[7.164435,46.737987],"type":"Point"},"type":"Feature","properties":{"typePOI":"Arène","title":"Chapelle d'Essert","uuid":3147}},{"geometry":{"coordinates":[7.277729,46.873442],"type":"Point"},"type":"Feature","properties":{"typePOI":"Arène","title":"Jesus-Statue Wünnewil","uuid":3148}},{"geometry":{"coordinates":[7.083292,46.624252],"type":"Point"},"type":"Feature","properties":{"typePOI":"Arène","title":"Gravure D'une Grue","uuid":3149}},{"geometry":{"coordinates":[7.06698,46.851627],"type":"Point"},"type":"Feature","properties":{"typePOI":"Arène","title":"Petite Place de Jeu","uuid":3150}},{"geometry":{"coordinates":[7.264817,46.817695],"type":"Point"},"type":"Feature","properties":{"typePOI":"Arène","title":"Obermonten Pilgerweg 4","uuid":3151}},{"geometry":{"coordinates":[7.101717,46.560404],"type":"Point"},"type":"Feature","properties":{"typePOI":"Arène","title":"Pâturages Des Vaches","uuid":3152}},{"geometry":{"coordinates":[7.087099,46.865072],"type":"Point"},"type":"Feature","properties":{"typePOI":"Arène","title":"Croix En Bois","uuid":3153}},{"geometry":{"coordinates":[6.863519,46.861632],"type":"Point"},"type":"Feature","properties":{"typePOI":"Arène","title":"Chateau De La Corbière","uuid":3154}},{"geometry":{"coordinates":[7.213928,46.811893],"type":"Point"},"type":"Feature","properties":{"typePOI":"Arène","title":"Harmonie des Waldes","uuid":3155}},{"geometry":{"coordinates":[7.040933,46.760288],"type":"Point"},"type":"Feature","properties":{"typePOI":"Arène","title":"club des lutteurs - Schwingverein Cottens","uuid":3156}},{"geometry":{"coordinates":[7.148593,46.795444],"type":"Point"},"type":"Feature","properties":{"typePOI":"Arène","title":"Wagon Le Cardinal","uuid":3157}},{"geometry":{"coordinates":[7.148757,46.784728],"type":"Point"},"type":"Feature","properties":{"typePOI":"Arène","title":"Les Pères Du St Sacrement","uuid":3158}},{"geometry":{"coordinates":[7.115818,46.893666],"type":"Point"},"type":"Feature","properties":{"typePOI":"Arène","title":"Doppel-Brunnen","uuid":3159}},{"geometry":{"coordinates":[7.114891,46.769665],"type":"Point"},"type":"Feature","properties":{"typePOI":"Arène","title":"La Vache Grangeneuve","uuid":3160}},{"geometry":{"coordinates":[7.137782,46.696425],"type":"Point"},"type":"Feature","properties":{"typePOI":"Arène","title":"La Chapelle de La Roche","uuid":3161}},{"geometry":{"coordinates":[7.054024,46.624719],"type":"Point"},"type":"Feature","properties":{"typePOI":"Arène","title":"Collège du Sud","uuid":3162}},{"geometry":{"coordinates":[7.174293,46.803537],"type":"Point"},"type":"Feature","properties":{"typePOI":"Arène","title":"La Croix Du Gotteron","uuid":3163}},{"geometry":{"coordinates":[7.163661,46.784645],"type":"Point"},"type":"Feature","properties":{"typePOI":"Arène","title":"Station forestière","uuid":3164}},{"geometry":{"coordinates":[6.924956,46.70053],"type":"Point"},"type":"Feature","properties":{"typePOI":"Arène","title":"Croix De La Fille Dieu","uuid":3165}},{"geometry":{"coordinates":[7.088731,46.534529],"type":"Point"},"type":"Feature","properties":{"typePOI":"Arène","title":"Grotte statue religieuse","uuid":3166}},{"geometry":{"coordinates":[7.155057,46.815493],"type":"Point"},"type":"Feature","properties":{"typePOI":"Arène","title":"Chapelle St-leonard","uuid":3167}},{"geometry":{"coordinates":[7.187141,46.831949],"type":"Point"},"type":"Feature","properties":{"typePOI":"Arène","title":"Father And Son","uuid":3168}},{"geometry":{"coordinates":[7.19004,46.804373],"type":"Point"},"type":"Feature","properties":{"typePOI":"Arène","title":"Colimaçon De Pierre","uuid":3169}},{"geometry":{"coordinates":[6.850051,46.521707],"type":"Point"},"type":"Feature","properties":{"typePOI":"Arène","title":"Church Of BOSSONENS","uuid":3170}},{"geometry":{"coordinates":[7.085856,46.587573],"type":"Point"},"type":"Feature","properties":{"typePOI":"Arène","title":"Aigle Royal Et Sa Chouette","uuid":3171}},{"geometry":{"coordinates":[7.162415,46.788881],"type":"Point"},"type":"Feature","properties":{"typePOI":"Arène","title":"Ruine","uuid":3172}},{"geometry":{"coordinates":[7.134359,46.933222],"type":"Point"},"type":"Feature","properties":{"typePOI":"Arène","title":"Gesamtmelioration Murten Altavilla","uuid":3173}},{"geometry":{"coordinates":[7.116714,46.784348],"type":"Point"},"type":"Feature","properties":{"typePOI":"Arène","title":"Sainte-Apolline","uuid":3174}},{"geometry":{"coordinates":[6.901556,46.528525],"type":"Point"},"type":"Feature","properties":{"typePOI":"Arène","title":"Église Catholique de Châtel Saint Denis","uuid":3175}},{"geometry":{"coordinates":[7.095305,46.805716],"type":"Point"},"type":"Feature","properties":{"typePOI":"Arène","title":"Terrain de foot Fc Corminboeuf","uuid":3176}},{"geometry":{"coordinates":[7.107413,46.925042],"type":"Point"},"type":"Feature","properties":{"typePOI":"Arène","title":"Pinte De Meyriez","uuid":3177}},{"geometry":{"coordinates":[7.163474,46.802654],"type":"Point"},"type":"Feature","properties":{"typePOI":"Arène","title":"Service Archeologique Fribourg","uuid":3178}},{"geometry":{"coordinates":[7.309794,46.891318],"type":"Point"},"type":"Feature","properties":{"typePOI":"Arène","title":"Sense Vitaparcours Posten 13","uuid":3179}},{"geometry":{"coordinates":[6.953213,46.693218],"type":"Point"},"type":"Feature","properties":{"typePOI":"Arène","title":"Berlens Église","uuid":3180}},{"geometry":{"coordinates":[7.019441,46.786049],"type":"Point"},"type":"Feature","properties":{"typePOI":"Arène","title":"Car In Bloom","uuid":3181}},{"geometry":{"coordinates":[7.136843,46.941128],"type":"Point"},"type":"Feature","properties":{"typePOI":"Arène","title":"Wheels","uuid":3182}},{"geometry":{"coordinates":[7.096488,46.742922],"type":"Point"},"type":"Feature","properties":{"typePOI":"Arène","title":"La Tuffière","uuid":3183}},{"geometry":{"coordinates":[7.2911,46.730631],"type":"Point"},"type":"Feature","properties":{"typePOI":"Arène","title":"Spielplatz im Stäfeliwegquartier","uuid":3184}},{"geometry":{"coordinates":[7.092872,46.759423],"type":"Point"},"type":"Feature","properties":{"typePOI":"Arène","title":"Tête De Vaches","uuid":3185}},{"geometry":{"coordinates":[7.225512,46.89139],"type":"Point"},"type":"Feature","properties":{"typePOI":"Arène","title":"Oldschool Farmhouse","uuid":3186}},{"geometry":{"coordinates":[7.110468,46.797402],"type":"Point"},"type":"Feature","properties":{"typePOI":"Arène","title":"Valons Mystère","uuid":3187}},{"geometry":{"coordinates":[7.139674,46.82057],"type":"Point"},"type":"Feature","properties":{"typePOI":"Arène","title":"Wagon En Bois","uuid":3188}},{"geometry":{"coordinates":[6.928326,46.605184],"type":"Point"},"type":"Feature","properties":{"typePOI":"Arène","title":"Couper Des Arbre C'est","uuid":3189}},{"geometry":{"coordinates":[7.029992,46.74935],"type":"Point"},"type":"Feature","properties":{"typePOI":"Arène","title":"Croix du père Schuwey","uuid":3190}},{"geometry":{"coordinates":[7.103195,46.81272],"type":"Point"},"type":"Feature","properties":{"typePOI":"Arène","title":"Place de jeux des Blés","uuid":3191}},{"geometry":{"coordinates":[7.125415,46.936356],"type":"Point"},"type":"Feature","properties":{"typePOI":"Arène","title":"Gemeindekanzlei","uuid":3192}},{"geometry":{"coordinates":[7.158176,46.817707],"type":"Point"},"type":"Feature","properties":{"typePOI":"Arène","title":"Joseph","uuid":3193}},{"geometry":{"coordinates":[7.151365,46.802696],"type":"Point"},"type":"Feature","properties":{"typePOI":"Arène","title":"Batiment Baroque Fribourg","uuid":3194}},{"geometry":{"coordinates":[7.274796,46.72916],"type":"Point"},"type":"Feature","properties":{"typePOI":"Arène","title":"Vitaparcours Posten 2","uuid":3195}},{"geometry":{"coordinates":[7.213615,46.811488],"type":"Point"},"type":"Feature","properties":{"typePOI":"Arène","title":"Grotte Tafers","uuid":3196}},{"geometry":{"coordinates":[7.299866,46.892452],"type":"Point"},"type":"Feature","properties":{"typePOI":"Arène","title":"Altes Zeughaus","uuid":3197}},{"geometry":{"coordinates":[7.018265,46.830574],"type":"Point"},"type":"Feature","properties":{"typePOI":"Arène","title":"Fontaine de Léchelles","uuid":3198}},{"geometry":{"coordinates":[7.257971,46.768906],"type":"Point"},"type":"Feature","properties":{"typePOI":"Arène","title":"Wegkreuz bei Rotkreuz","uuid":3199}},{"geometry":{"coordinates":[6.838781,46.85026],"type":"Point"},"type":"Feature","properties":{"typePOI":"Arène","title":"Capitainerie du Port","uuid":3200}},{"geometry":{"coordinates":[7.111638,46.69181],"type":"Point"},"type":"Feature","properties":{"typePOI":"Arène","title":"Chapelle Du Lac","uuid":3201}},{"geometry":{"coordinates":[6.887606,46.813292],"type":"Point"},"type":"Feature","properties":{"typePOI":"Arène","title":"Chute Grillagée","uuid":3202}},{"geometry":{"coordinates":[7.24865,46.856616],"type":"Point"},"type":"Feature","properties":{"typePOI":"Arène","title":"Grafitti im Dorf","uuid":3203}},{"geometry":{"coordinates":[6.936098,46.751048],"type":"Point"},"type":"Feature","properties":{"typePOI":"Arène","title":"Sculpture","uuid":3204}},{"geometry":{"coordinates":[7.074744,46.772039],"type":"Point"},"type":"Feature","properties":{"typePOI":"Arène","title":"Air de jeu Champ Didon","uuid":3205}},{"geometry":{"coordinates":[7.183154,46.95419],"type":"Point"},"type":"Feature","properties":{"typePOI":"Arène","title":"Rock-y Ried","uuid":3206}},{"geometry":{"coordinates":[6.82253,46.792802],"type":"Point"},"type":"Feature","properties":{"typePOI":"Arène","title":"Fontaine du village de Franex","uuid":3207}},{"geometry":{"coordinates":[7.259801,46.865347],"type":"Point"},"type":"Feature","properties":{"typePOI":"Arène","title":"Jesusstatue Hagnet","uuid":3208}},{"geometry":{"coordinates":[6.927596,46.572942],"type":"Point"},"type":"Feature","properties":{"typePOI":"Arène","title":"Église de Semsales","uuid":3209}},{"geometry":{"coordinates":[7.11591,46.800144],"type":"Point"},"type":"Feature","properties":{"typePOI":"Arène","title":"Au Bois De Mon Coeur","uuid":3210}},{"geometry":{"coordinates":[7.161918,46.621336],"type":"Point"},"type":"Feature","properties":{"typePOI":"Arène","title":"Bains de la Gruyère","uuid":3211}},{"geometry":{"coordinates":[7.139983,46.898795],"type":"Point"},"type":"Feature","properties":{"typePOI":"Arène","title":"Fontaine de 1821 Cressier","uuid":3212}},{"geometry":{"coordinates":[7.065964,46.831982],"type":"Point"},"type":"Feature","properties":{"typePOI":"Arène","title":"Gare de Grolley","uuid":3213}},{"geometry":{"coordinates":[7.172259,46.811105],"type":"Point"},"type":"Feature","properties":{"typePOI":"Arène","title":"La Chapelle De Bertigny","uuid":3214}},{"geometry":{"coordinates":[7.200953,46.990154],"type":"Point"},"type":"Feature","properties":{"typePOI":"Arène","title":"Jungle Trek Pavilion","uuid":3215}},{"geometry":{"coordinates":[6.845355,46.848815],"type":"Point"},"type":"Feature","properties":{"typePOI":"Arène","title":"Eglise Des Petits Poissons","uuid":3216}},{"geometry":{"coordinates":[6.810662,46.611405],"type":"Point"},"type":"Feature","properties":{"typePOI":"Arène","title":"Auberge Communale","uuid":3217}},{"geometry":{"coordinates":[7.126465,46.786022],"type":"Point"},"type":"Feature","properties":{"typePOI":"Arène","title":"Glâne Tower","uuid":3218}},{"geometry":{"coordinates":[7.143765,46.93881],"type":"Point"},"type":"Feature","properties":{"typePOI":"Arène","title":"Schwinger-Brunnen","uuid":3219}},{"geometry":{"coordinates":[7.121168,46.930239],"type":"Point"},"type":"Feature","properties":{"typePOI":"Arène","title":"Huge Hammer","uuid":3220}},{"geometry":{"coordinates":[7.188121,46.649218],"type":"Point"},"type":"Feature","properties":{"typePOI":"Arène","title":"Chartreuse De La Valsainte","uuid":3221}},{"geometry":{"coordinates":[7.077348,46.777974],"type":"Point"},"type":"Feature","properties":{"typePOI":"Arène","title":"Cia Le Coq","uuid":3222}},{"geometry":{"coordinates":[7.020192,46.73633],"type":"Point"},"type":"Feature","properties":{"typePOI":"Arène","title":"Eglise","uuid":3223}},{"geometry":{"coordinates":[7.224673,46.741113],"type":"Point"},"type":"Feature","properties":{"typePOI":"Arène","title":"Kirche St. Silvester","uuid":3224}},{"geometry":{"coordinates":[7.134552,46.937898],"type":"Point"},"type":"Feature","properties":{"typePOI":"Arène","title":"Chaise Haute","uuid":3225}},{"geometry":{"coordinates":[7.044839,46.613732],"type":"Point"},"type":"Feature","properties":{"typePOI":"Arène","title":"Panneau Agip","uuid":3226}},{"geometry":{"coordinates":[7.0698,46.605532],"type":"Point"},"type":"Feature","properties":{"typePOI":"Arène","title":"Fake Forest","uuid":3227}},{"geometry":{"coordinates":[7.177181,46.750658],"type":"Point"},"type":"Feature","properties":{"typePOI":"Arène","title":"Aire de jeux de Praroman","uuid":3228}},{"geometry":{"coordinates":[6.809867,46.825646],"type":"Point"},"type":"Feature","properties":{"typePOI":"Arène","title":"Brunnen 1950","uuid":3229}},{"geometry":{"coordinates":[7.268744,46.824482],"type":"Point"},"type":"Feature","properties":{"typePOI":"Arène","title":"Schutzzonen für Trinkwasser Niedermonten","uuid":3230}},{"geometry":{"coordinates":[7.096624,46.833589],"type":"Point"},"type":"Feature","properties":{"typePOI":"Arène","title":"Zurich parcoursvita 4","uuid":3231}},{"geometry":{"coordinates":[7.097409,46.952203],"type":"Point"},"type":"Feature","properties":{"typePOI":"Arène","title":"Steel Dragon","uuid":3232}},{"geometry":{"coordinates":[7.07111,46.833621],"type":"Point"},"type":"Feature","properties":{"typePOI":"Arène","title":"Eglise De Grolley","uuid":3233}},{"geometry":{"coordinates":[7.126406,46.812455],"type":"Point"},"type":"Feature","properties":{"typePOI":"Arène","title":"De Boccard","uuid":3234}},{"geometry":{"coordinates":[7.23381,46.823138],"type":"Point"},"type":"Feature","properties":{"typePOI":"Arène","title":"Wegkreuz Rohr","uuid":3235}},{"geometry":{"coordinates":[7.119221,46.963014],"type":"Point"},"type":"Feature","properties":{"typePOI":"Arène","title":"Fontaine Du Home Du Vully","uuid":3236}},{"geometry":{"coordinates":[7.140275,46.89822],"type":"Point"},"type":"Feature","properties":{"typePOI":"Arène","title":"Cressier FR - Église","uuid":3237}},{"geometry":{"coordinates":[7.302206,46.825427],"type":"Point"},"type":"Feature","properties":{"typePOI":"Arène","title":"Kleiner Brunnen","uuid":3238}},{"geometry":{"coordinates":[7.062555,46.505647],"type":"Point"},"type":"Feature","properties":{"typePOI":"Arène","title":"Église","uuid":3239}},{"geometry":{"coordinates":[7.064945,46.768136],"type":"Point"},"type":"Feature","properties":{"typePOI":"Arène","title":"Maison Communale Neyruz","uuid":3240}},{"geometry":{"coordinates":[7.176566,46.800105],"type":"Point"},"type":"Feature","properties":{"typePOI":"Arène","title":"Notre Dame Du Carmel","uuid":3241}},{"geometry":{"coordinates":[7.105964,46.918933],"type":"Point"},"type":"Feature","properties":{"typePOI":"Arène","title":"orange Rutsche","uuid":3242}},{"geometry":{"coordinates":[6.889383,46.83568],"type":"Point"},"type":"Feature","properties":{"typePOI":"Arène","title":"Croix 1774","uuid":3243}},{"geometry":{"coordinates":[6.835366,46.846136],"type":"Point"},"type":"Feature","properties":{"typePOI":"Arène","title":"Grenouille au banjo","uuid":3244}},{"geometry":{"coordinates":[6.790944,46.821701],"type":"Point"},"type":"Feature","properties":{"typePOI":"Arène","title":"Mosaik mit Sonne","uuid":3245}},{"geometry":{"coordinates":[7.061572,46.632958],"type":"Point"},"type":"Feature","properties":{"typePOI":"Arène","title":"Totem De Glasson","uuid":3246}},{"geometry":{"coordinates":[7.114226,46.766594],"type":"Point"},"type":"Feature","properties":{"typePOI":"Arène","title":"Stonewall","uuid":3247}},{"geometry":{"coordinates":[7.159916,46.807604],"type":"Point"},"type":"Feature","properties":{"typePOI":"Arène","title":"Élément En Trois Pièces","uuid":3248}},{"geometry":{"coordinates":[7.26724,46.661693],"type":"Point"},"type":"Feature","properties":{"typePOI":"Arène","title":"Häxehuus","uuid":3249}},{"geometry":{"coordinates":[6.988395,46.852954],"type":"Point"},"type":"Feature","properties":{"typePOI":"Arène","title":"Eglise De Dompierre","uuid":3250}},{"geometry":{"coordinates":[7.115303,46.864207],"type":"Point"},"type":"Feature","properties":{"typePOI":"Arène","title":"Terrain De Foot Secondaire","uuid":3251}},{"geometry":{"coordinates":[7.282959,46.811733],"type":"Point"},"type":"Feature","properties":{"typePOI":"Arène","title":"Goldkuh Trifft Goldsau","uuid":3252}},{"geometry":{"coordinates":[7.068257,46.883396],"type":"Point"},"type":"Feature","properties":{"typePOI":"Arène","title":"Place de jeux de Villarepos","uuid":3253}},{"geometry":{"coordinates":[7.107067,46.645356],"type":"Point"},"type":"Feature","properties":{"typePOI":"Arène","title":"Vieux Lavoir","uuid":3254}},{"geometry":{"coordinates":[7.113774,46.92721],"type":"Point"},"type":"Feature","properties":{"typePOI":"Arène","title":"Expo.02","uuid":3255}},{"geometry":{"coordinates":[7.187237,46.961526],"type":"Point"},"type":"Feature","properties":{"typePOI":"Arène","title":"280 Millionen Jahre","uuid":3256}},{"geometry":{"coordinates":[7.021392,46.704835],"type":"Point"},"type":"Feature","properties":{"typePOI":"Arène","title":"Croix Villarlod","uuid":3257}},{"geometry":{"coordinates":[6.968453,46.770567],"type":"Point"},"type":"Feature","properties":{"typePOI":"Arène","title":"Église De Torny","uuid":3258}},{"geometry":{"coordinates":[7.096155,46.782013],"type":"Point"},"type":"Feature","properties":{"typePOI":"Arène","title":"Venus Du Cisel","uuid":3259}},{"geometry":{"coordinates":[7.134134,46.812546],"type":"Point"},"type":"Feature","properties":{"typePOI":"Arène","title":"Pont de la Chassotte","uuid":3260}},{"geometry":{"coordinates":[6.863872,46.829488],"type":"Point"},"type":"Feature","properties":{"typePOI":"Arène","title":"Fontaine de Frasnes","uuid":3261}},{"geometry":{"coordinates":[7.007662,46.759599],"type":"Point"},"type":"Feature","properties":{"typePOI":"Arène","title":"Fresque Football","uuid":3262}},{"geometry":{"coordinates":[7.062361,46.611501],"type":"Point"},"type":"Feature","properties":{"typePOI":"Arène","title":"Panier !","uuid":3263}},{"geometry":{"coordinates":[7.153035,46.796501],"type":"Point"},"type":"Feature","properties":{"typePOI":"Arène","title":"Justice Mosaic","uuid":3264}},{"geometry":{"coordinates":[7.087145,46.682942],"type":"Point"},"type":"Feature","properties":{"typePOI":"Arène","title":"Restoroute de la Gruyère","uuid":3265}},{"geometry":{"coordinates":[6.9164,46.695702],"type":"Point"},"type":"Feature","properties":{"typePOI":"Arène","title":"Tour De Billens Tour Du Midi","uuid":3266}},{"geometry":{"coordinates":[7.172484,46.810911],"type":"Point"},"type":"Feature","properties":{"typePOI":"Arène","title":"Fontaine De La Chapelle","uuid":3267}},{"geometry":{"coordinates":[7.126367,46.810373],"type":"Point"},"type":"Feature","properties":{"typePOI":"Arène","title":"Croix du Domaine Toutvent","uuid":3268}},{"geometry":{"coordinates":[7.195487,46.850573],"type":"Point"},"type":"Feature","properties":{"typePOI":"Arène","title":"Reformierte Kirchgemeinde","uuid":3269}},{"geometry":{"coordinates":[7.065046,46.767823],"type":"Point"},"type":"Feature","properties":{"typePOI":"Arène","title":"Église de Neyruz","uuid":3270}},{"geometry":{"coordinates":[7.210381,46.761142],"type":"Point"},"type":"Feature","properties":{"typePOI":"Arène","title":"Kirche Giffers","uuid":3271}},{"geometry":{"coordinates":[7.128478,46.812838],"type":"Point"},"type":"Feature","properties":{"typePOI":"Arène","title":"Roi Grenouille","uuid":3272}},{"geometry":{"coordinates":[7.192464,46.975087],"type":"Point"},"type":"Feature","properties":{"typePOI":"Arène","title":"Historisches Stellwerk Kerzers","uuid":3273}},{"geometry":{"coordinates":[7.245839,46.830965],"type":"Point"},"type":"Feature","properties":{"typePOI":"Arène","title":"Kapelle Obertützenberg","uuid":3274}},{"geometry":{"coordinates":[7.168484,46.892352],"type":"Point"},"type":"Feature","properties":{"typePOI":"Arène","title":"OS Gurmels Sculpture","uuid":3275}},{"geometry":{"coordinates":[6.90628,46.530713],"type":"Point"},"type":"Feature","properties":{"typePOI":"Arène","title":"Fontaine du Bourg","uuid":3276}},{"geometry":{"coordinates":[6.977283,46.818504],"type":"Point"},"type":"Feature","properties":{"typePOI":"Arène","title":"Fontaine Kennedy","uuid":3277}},{"geometry":{"coordinates":[7.186785,46.889066],"type":"Point"},"type":"Feature","properties":{"typePOI":"Arène","title":"Station 5","uuid":3278}},{"geometry":{"coordinates":[7.159254,46.857295],"type":"Point"},"type":"Feature","properties":{"typePOI":"Arène","title":"Chapelle De Barbereche","uuid":3279}},{"geometry":{"coordinates":[7.1112,46.908057],"type":"Point"},"type":"Feature","properties":{"typePOI":"Arène","title":"Les Hommes Debout","uuid":3280}},{"geometry":{"coordinates":[7.010626,46.792358],"type":"Point"},"type":"Feature","properties":{"typePOI":"Arène","title":"Agilité","uuid":3281}},{"geometry":{"coordinates":[7.023644,46.670598],"type":"Point"},"type":"Feature","properties":{"typePOI":"Arène","title":"Chemin Des Sculptures","uuid":3282}},{"geometry":{"coordinates":[7.159772,46.910183],"type":"Point"},"type":"Feature","properties":{"typePOI":"Arène","title":"Güterzusammenlegung Salvenach and Jeuss","uuid":3283}},{"geometry":{"coordinates":[7.13124,46.611934],"type":"Point"},"type":"Feature","properties":{"typePOI":"Arène","title":"Hache Du Montsalvens","uuid":3284}},{"geometry":{"coordinates":[6.834651,46.831562],"type":"Point"},"type":"Feature","properties":{"typePOI":"Arène","title":"Terrain de jeux de Châtillon","uuid":3285}},{"geometry":{"coordinates":[7.070234,46.771022],"type":"Point"},"type":"Feature","properties":{"typePOI":"Arène","title":"Place de jeu la chaumière","uuid":3286}},{"geometry":{"coordinates":[6.907229,46.530599],"type":"Point"},"type":"Feature","properties":{"typePOI":"Arène","title":"Paroisse Évangélique Réformée","uuid":3287}},{"geometry":{"coordinates":[7.213143,46.809595],"type":"Point"},"type":"Feature","properties":{"typePOI":"Arène","title":"Infotafel Bienenweg","uuid":3288}},{"geometry":{"coordinates":[7.201005,46.932634],"type":"Point"},"type":"Feature","properties":{"typePOI":"Arène","title":"Doppelbrunnen Ulmiz","uuid":3289}},{"geometry":{"coordinates":[6.844373,46.83361],"type":"Point"},"type":"Feature","properties":{"typePOI":"Arène","title":"Colombe De Lully","uuid":3290}},{"geometry":{"coordinates":[7.162626,46.806187],"type":"Point"},"type":"Feature","properties":{"typePOI":"Arène","title":"Cathédrale Saint-Nicolas Fribourg","uuid":3291}},{"geometry":{"coordinates":[7.15139,46.81308],"type":"Point"},"type":"Feature","properties":{"typePOI":"Arène","title":"Piscines Du Levant","uuid":3292}},{"geometry":{"coordinates":[7.152717,46.8728],"type":"Point"},"type":"Feature","properties":{"typePOI":"Arène","title":"Eulentrio","uuid":3293}},{"geometry":{"coordinates":[7.09659,46.834367],"type":"Point"},"type":"Feature","properties":{"typePOI":"Arène","title":"Art Forestier","uuid":3294}},{"geometry":{"coordinates":[6.855258,46.501855],"type":"Point"},"type":"Feature","properties":{"typePOI":"Arène","title":"Sentier botanique","uuid":3295}},{"geometry":{"coordinates":[6.948837,46.52173],"type":"Point"},"type":"Feature","properties":{"typePOI":"Arène","title":"Statut Des Libellules","uuid":3296}},{"geometry":{"coordinates":[6.840013,46.844052],"type":"Point"},"type":"Feature","properties":{"typePOI":"Arène","title":"Le Cheval du Vétérinaire","uuid":3297}},{"geometry":{"coordinates":[6.870591,46.748872],"type":"Point"},"type":"Feature","properties":{"typePOI":"Arène","title":"Croix Du Village Carrefour","uuid":3298}},{"geometry":{"coordinates":[7.060853,46.832384],"type":"Point"},"type":"Feature","properties":{"typePOI":"Arène","title":"Terrain de petanque de la caserne de Grolley","uuid":3299}},{"geometry":{"coordinates":[7.091727,46.700567],"type":"Point"},"type":"Feature","properties":{"typePOI":"Arène","title":"L'île D'ogoz","uuid":3300}},{"geometry":{"coordinates":[7.16617,46.769619],"type":"Point"},"type":"Feature","properties":{"typePOI":"Arène","title":"Game Place Of Ice Rink","uuid":3301}},{"geometry":{"coordinates":[7.095936,46.974452],"type":"Point"},"type":"Feature","properties":{"typePOI":"Arène","title":"Camping Les 3 Lacs","uuid":3302}},{"geometry":{"coordinates":[7.182036,46.803015],"type":"Point"},"type":"Feature","properties":{"typePOI":"Arène","title":"Pinte des Trois Canards","uuid":3303}},{"geometry":{"coordinates":[6.932982,46.607789],"type":"Point"},"type":"Feature","properties":{"typePOI":"Arène","title":"Le Sentier","uuid":3304}},{"geometry":{"coordinates":[7.069245,46.857834],"type":"Point"},"type":"Feature","properties":{"typePOI":"Arène","title":"Paroisse de Courtion","uuid":3305}},{"geometry":{"coordinates":[7.147448,46.828101],"type":"Point"},"type":"Feature","properties":{"typePOI":"Arène","title":"Oh La Vache!","uuid":3306}},{"geometry":{"coordinates":[7.146014,46.754272],"type":"Point"},"type":"Feature","properties":{"typePOI":"Arène","title":"Trace De Vie","uuid":3307}},{"geometry":{"coordinates":[7.128055,46.8125],"type":"Point"},"type":"Feature","properties":{"typePOI":"Arène","title":"Place d'Affry","uuid":3308}},{"geometry":{"coordinates":[7.084537,46.948603],"type":"Point"},"type":"Feature","properties":{"typePOI":"Arène","title":"Fontaine adm. com. Haut-Vully","uuid":3309}},{"geometry":{"coordinates":[7.109082,46.605824],"type":"Point"},"type":"Feature","properties":{"typePOI":"Arène","title":"Brunnen Pl. de Moulins","uuid":3310}},{"geometry":{"coordinates":[7.108197,46.834058],"type":"Point"},"type":"Feature","properties":{"typePOI":"Arène","title":"Fontaine 1895","uuid":3311}},{"geometry":{"coordinates":[6.843147,46.850462],"type":"Point"},"type":"Feature","properties":{"typePOI":"Arène","title":"Jesus Fatalus","uuid":3312}},{"geometry":{"coordinates":[7.018222,46.668569],"type":"Point"},"type":"Feature","properties":{"typePOI":"Arène","title":"Trône De Dame Nature","uuid":3313}},{"geometry":{"coordinates":[7.056096,46.516998],"type":"Point"},"type":"Feature","properties":{"typePOI":"Arène","title":"Eglise D'albeuve","uuid":3314}},{"geometry":{"coordinates":[7.091373,46.83228],"type":"Point"},"type":"Feature","properties":{"typePOI":"Arène","title":"Les Ours de la Forêt","uuid":3315}},{"geometry":{"coordinates":[7.106473,46.822113],"type":"Point"},"type":"Feature","properties":{"typePOI":"Arène","title":"Église de Belfaux","uuid":3316}},{"geometry":{"coordinates":[6.915778,46.718308],"type":"Point"},"type":"Feature","properties":{"typePOI":"Arène","title":"Forêt de Billens","uuid":3317}},{"geometry":{"coordinates":[7.097222,46.781944],"type":"Point"},"type":"Feature","properties":{"typePOI":"Arène","title":"Racines du Rocher","uuid":3318}},{"geometry":{"coordinates":[6.903318,46.667792],"type":"Point"},"type":"Feature","properties":{"typePOI":"Arène","title":"Chapelle Notre Dame Du Bois","uuid":3319}},{"geometry":{"coordinates":[6.989976,46.619176],"type":"Point"},"type":"Feature","properties":{"typePOI":"Arène","title":"Gare de Vaulruz-Sud","uuid":3320}},{"geometry":{"coordinates":[6.881372,46.784141],"type":"Point"},"type":"Feature","properties":{"typePOI":"Arène","title":"Église de Ménières","uuid":3321}},{"geometry":{"coordinates":[7.256726,46.744933],"type":"Point"},"type":"Feature","properties":{"typePOI":"Arène","title":"Wegkreuz Wyden","uuid":3322}},{"geometry":{"coordinates":[7.063132,46.621686],"type":"Point"},"type":"Feature","properties":{"typePOI":"Arène","title":"Rond-Point Jarres","uuid":3323}},{"geometry":{"coordinates":[7.032788,46.716389],"type":"Point"},"type":"Feature","properties":{"typePOI":"Arène","title":"Fontaine Du Berger","uuid":3324}},{"geometry":{"coordinates":[7.165204,46.805221],"type":"Point"},"type":"Feature","properties":{"typePOI":"Arène","title":"L'homme A La Croix","uuid":3325}},{"geometry":{"coordinates":[6.898696,46.526053],"type":"Point"},"type":"Feature","properties":{"typePOI":"Arène","title":"Gare De Chatel St Denis","uuid":3326}},{"geometry":{"coordinates":[7.164825,46.799217],"type":"Point"},"type":"Feature","properties":{"typePOI":"Arène","title":"Livre du Barrage de la Maigrauge","uuid":3327}},{"geometry":{"coordinates":[7.249877,46.895061],"type":"Point"},"type":"Feature","properties":{"typePOI":"Arène","title":"Wegkreuz Noflen","uuid":3328}},{"geometry":{"coordinates":[6.886742,46.518758],"type":"Point"},"type":"Feature","properties":{"typePOI":"Arène","title":"Fontaine de la Rapasse","uuid":3329}},{"geometry":{"coordinates":[7.234007,46.733774],"type":"Point"},"type":"Feature","properties":{"typePOI":"Arène","title":"Arc En Bois","uuid":3330}},{"geometry":{"coordinates":[7.155975,46.805334],"type":"Point"},"type":"Feature","properties":{"typePOI":"Arène","title":"Horloge des Places","uuid":3331}},{"geometry":{"coordinates":[6.782223,46.811845],"type":"Point"},"type":"Feature","properties":{"typePOI":"Arène","title":"La Lécheyre, les chevaux galopants","uuid":3332}},{"geometry":{"coordinates":[7.059471,46.605852],"type":"Point"},"type":"Feature","properties":{"typePOI":"Arène","title":"Co De La Tour","uuid":3333}},{"geometry":{"coordinates":[7.216329,46.717262],"type":"Point"},"type":"Feature","properties":{"typePOI":"Arène","title":"Chrüzflue Kreuz","uuid":3334}},{"geometry":{"coordinates":[6.784719,46.811292],"type":"Point"},"type":"Feature","properties":{"typePOI":"Arène","title":"Weinlehrpfad Posten 12","uuid":3335}},{"geometry":{"coordinates":[7.160155,46.775141],"type":"Point"},"type":"Feature","properties":{"typePOI":"Arène","title":"Fontaine Du Flutiste De Gela","uuid":3336}},{"geometry":{"coordinates":[6.900895,46.699565],"type":"Point"},"type":"Feature","properties":{"typePOI":"Arène","title":"Place de jeux de la Maula","uuid":3337}},{"geometry":{"coordinates":[7.276559,46.659673],"type":"Point"},"type":"Feature","properties":{"typePOI":"Arène","title":"Schwarzsee Enstehung","uuid":3338}},{"geometry":{"coordinates":[7.146836,46.803327],"type":"Point"},"type":"Feature","properties":{"typePOI":"Arène","title":"Église Saint Pierre","uuid":3339}},{"geometry":{"coordinates":[7.175134,46.803055],"type":"Point"},"type":"Feature","properties":{"typePOI":"Arène","title":"La Vache Du Gotteron","uuid":3340}},{"geometry":{"coordinates":[7.101158,46.818671],"type":"Point"},"type":"Feature","properties":{"typePOI":"Arène","title":"Place de jeux Bonjard","uuid":3341}},{"geometry":{"coordinates":[7.280764,46.871908],"type":"Point"},"type":"Feature","properties":{"typePOI":"Arène","title":"Wünnewil Train Station","uuid":3342}},{"geometry":{"coordinates":[7.060737,46.849841],"type":"Point"},"type":"Feature","properties":{"typePOI":"Arène","title":"Promenade du Perron","uuid":3343}},{"geometry":{"coordinates":[7.034652,46.751142],"type":"Point"},"type":"Feature","properties":{"typePOI":"Arène","title":"Gare Cottens Fr 01","uuid":3344}},{"geometry":{"coordinates":[7.144827,46.810643],"type":"Point"},"type":"Feature","properties":{"typePOI":"Arène","title":"Éponge Verte","uuid":3345}},{"geometry":{"coordinates":[7.069386,46.539948],"type":"Point"},"type":"Feature","properties":{"typePOI":"Arène","title":"Eglise De Villars Sous Mont","uuid":3346}},{"geometry":{"coordinates":[7.171265,46.913343],"type":"Point"},"type":"Feature","properties":{"typePOI":"Arène","title":"Eiche Und Mythologie","uuid":3347}},{"geometry":{"coordinates":[7.274831,46.827239],"type":"Point"},"type":"Feature","properties":{"typePOI":"Arène","title":"Wegkreuz Grenchen","uuid":3348}},{"geometry":{"coordinates":[7.072572,46.837161],"type":"Point"},"type":"Feature","properties":{"typePOI":"Arène","title":"Terrain de foot de Grolley","uuid":3349}},{"geometry":{"coordinates":[7.132502,46.947967],"type":"Point"},"type":"Feature","properties":{"typePOI":"Arène","title":"Juragewässerkorrektion","uuid":3350}},{"geometry":{"coordinates":[7.27657,46.874638],"type":"Point"},"type":"Feature","properties":{"typePOI":"Arène","title":"Altes Gemeindehaus Wünnewil","uuid":3351}},{"geometry":{"coordinates":[7.215609,46.815881],"type":"Point"},"type":"Feature","properties":{"typePOI":"Arène","title":"Mond Brunnen","uuid":3352}},{"geometry":{"coordinates":[7.014775,46.666702],"type":"Point"},"type":"Feature","properties":{"typePOI":"Arène","title":"Chiens De Prairies","uuid":3353}},{"geometry":{"coordinates":[7.215307,46.81086],"type":"Point"},"type":"Feature","properties":{"typePOI":"Arène","title":"Mühlespiel","uuid":3354}},{"geometry":{"coordinates":[7.280804,46.66816],"type":"Point"},"type":"Feature","properties":{"typePOI":"Arène","title":"Ausguck Schwarzsee","uuid":3355}},{"geometry":{"coordinates":[6.910546,46.685765],"type":"Point"},"type":"Feature","properties":{"typePOI":"Arène","title":"Bicubic Romont","uuid":3356}},{"geometry":{"coordinates":[7.059908,46.722452],"type":"Point"},"type":"Feature","properties":{"typePOI":"Arène","title":"Salle de sport","uuid":3357}},{"geometry":{"coordinates":[7.06167,46.715054],"type":"Point"},"type":"Feature","properties":{"typePOI":"Arène","title":"Le Singe De Vuisternnens En Ogoz","uuid":3358}},{"geometry":{"coordinates":[7.314691,46.889919],"type":"Point"},"type":"Feature","properties":{"typePOI":"Arène","title":"Information Place Flamatt","uuid":3359}},{"geometry":{"coordinates":[7.16051,46.770922],"type":"Point"},"type":"Feature","properties":{"typePOI":"Arène","title":"Brouette Suspendue","uuid":3360}},{"geometry":{"coordinates":[7.188475,46.84513],"type":"Point"},"type":"Feature","properties":{"typePOI":"Arène","title":"Tonneau Cave des Rochers","uuid":3361}},{"geometry":{"coordinates":[7.200638,46.973896],"type":"Point"},"type":"Feature","properties":{"typePOI":"Arène","title":"Bibliothek Kerzers","uuid":3362}},{"geometry":{"coordinates":[7.194097,46.845334],"type":"Point"},"type":"Feature","properties":{"typePOI":"Arène","title":"Holy Cros Of Sandacher","uuid":3363}},{"geometry":{"coordinates":[7.055058,46.734956],"type":"Point"},"type":"Feature","properties":{"typePOI":"Arène","title":"Croix en bois","uuid":3364}},{"geometry":{"coordinates":[6.938293,46.895225],"type":"Point"},"type":"Feature","properties":{"typePOI":"Arène","title":"Gletterens Bus Station","uuid":3365}},{"geometry":{"coordinates":[7.164066,46.805357],"type":"Point"},"type":"Feature","properties":{"typePOI":"Arène","title":"L'homme A L'enfant","uuid":3366}},{"geometry":{"coordinates":[6.884584,46.880288],"type":"Point"},"type":"Feature","properties":{"typePOI":"Arène","title":"Réserve Naturelle","uuid":3367}},{"geometry":{"coordinates":[7.158265,46.797202],"type":"Point"},"type":"Feature","properties":{"typePOI":"Arène","title":"Humans Nº2","uuid":3368}},{"geometry":{"coordinates":[7.138953,46.776668],"type":"Point"},"type":"Feature","properties":{"typePOI":"Arène","title":"Place De Jeux Quartier Bel-air","uuid":3369}},{"geometry":{"coordinates":[7.100328,46.698225],"type":"Point"},"type":"Feature","properties":{"typePOI":"Arène","title":"Château D'Ogoz","uuid":3370}},{"geometry":{"coordinates":[7.093167,46.975607],"type":"Point"},"type":"Feature","properties":{"typePOI":"Arène","title":"Schifflände Camping Les 3 Lacs","uuid":3371}},{"geometry":{"coordinates":[7.015894,46.828994],"type":"Point"},"type":"Feature","properties":{"typePOI":"Arène","title":"Église De Léchelles","uuid":3372}},{"geometry":{"coordinates":[7.075018,46.648151],"type":"Point"},"type":"Feature","properties":{"typePOI":"Arène","title":"La Vierge","uuid":3373}},{"geometry":{"coordinates":[7.102143,46.602644],"type":"Point"},"type":"Feature","properties":{"typePOI":"Arène","title":"Fontaine de la Grue","uuid":3374}},{"geometry":{"coordinates":[7.155231,46.805456],"type":"Point"},"type":"Feature","properties":{"typePOI":"Arène","title":"Fontaine de Saint Pierre Fribourg","uuid":3375}},{"geometry":{"coordinates":[7.169337,46.804826],"type":"Point"},"type":"Feature","properties":{"typePOI":"Arène","title":"La Fleur De Lys","uuid":3376}},{"geometry":{"coordinates":[6.909542,46.521428],"type":"Point"},"type":"Feature","properties":{"typePOI":"Arène","title":"Place de jeux","uuid":3377}},{"geometry":{"coordinates":[7.146865,46.824144],"type":"Point"},"type":"Feature","properties":{"typePOI":"Arène","title":"Souvenir du syndicat d'amélioration foncière","uuid":3378}},{"geometry":{"coordinates":[6.779954,46.81692],"type":"Point"},"type":"Feature","properties":{"typePOI":"Arène","title":"Naturschutzgebiet Baie d'Yvonand","uuid":3379}},{"geometry":{"coordinates":[7.312716,46.636684],"type":"Point"},"type":"Feature","properties":{"typePOI":"Arène","title":"Schafberg","uuid":3380}},{"geometry":{"coordinates":[7.197598,46.940678],"type":"Point"},"type":"Feature","properties":{"typePOI":"Arène","title":"Kantonsschild","uuid":3381}},{"geometry":{"coordinates":[7.141814,46.846865],"type":"Point"},"type":"Feature","properties":{"typePOI":"Arène","title":"Picknick-Platz von Chanps Saint-Nicolas","uuid":3382}},{"geometry":{"coordinates":[7.158272,46.820834],"type":"Point"},"type":"Feature","properties":{"typePOI":"Arène","title":"Mors Auxilium Vitae","uuid":3383}},{"geometry":{"coordinates":[7.174393,46.893387],"type":"Point"},"type":"Feature","properties":{"typePOI":"Arène","title":"Brunnen Beim Hospiz","uuid":3384}},{"geometry":{"coordinates":[7.16412,46.798229],"type":"Point"},"type":"Feature","properties":{"typePOI":"Arène","title":"Pressa","uuid":3385}},{"geometry":{"coordinates":[6.978736,46.622902],"type":"Point"},"type":"Feature","properties":{"typePOI":"Arène","title":"Terrain De Foot","uuid":3386}},{"geometry":{"coordinates":[7.132498,46.794669],"type":"Point"},"type":"Feature","properties":{"typePOI":"Arène","title":"Nuithonie","uuid":3387}},{"geometry":{"coordinates":[7.066727,46.656135],"type":"Point"},"type":"Feature","properties":{"typePOI":"Arène","title":"Monolith","uuid":3388}},{"geometry":{"coordinates":[7.113016,46.796726],"type":"Point"},"type":"Feature","properties":{"typePOI":"Arène","title":"Serrés Ou Espacés","uuid":3389}},{"geometry":{"coordinates":[7.08906,46.536333],"type":"Point"},"type":"Feature","properties":{"typePOI":"Arène","title":"Globe Métallique","uuid":3390}},{"geometry":{"coordinates":[7.122079,46.958198],"type":"Point"},"type":"Feature","properties":{"typePOI":"Arène","title":"Eine Plantage ist nicht Naturwald","uuid":3391}},{"geometry":{"coordinates":[6.914417,46.795956],"type":"Point"},"type":"Feature","properties":{"typePOI":"Arène","title":"Jésus sur la croix","uuid":3392}},{"geometry":{"coordinates":[7.196469,46.761459],"type":"Point"},"type":"Feature","properties":{"typePOI":"Arène","title":"Les Luges","uuid":3393}},{"geometry":{"coordinates":[7.008547,46.79137],"type":"Point"},"type":"Feature","properties":{"typePOI":"Arène","title":"Rek","uuid":3394}},{"geometry":{"coordinates":[7.266652,46.75472],"type":"Point"},"type":"Feature","properties":{"typePOI":"Arène","title":"Alter Holzbrunnen Buchenkapelle","uuid":3395}},{"geometry":{"coordinates":[6.994194,46.624604],"type":"Point"},"type":"Feature","properties":{"typePOI":"Arène","title":"Les 3 Sapins Vaulruz FR","uuid":3396}},{"geometry":{"coordinates":[7.069409,46.604418],"type":"Point"},"type":"Feature","properties":{"typePOI":"Arène","title":"Chapelle De La Motta","uuid":3397}},{"geometry":{"coordinates":[7.109704,46.813711],"type":"Point"},"type":"Feature","properties":{"typePOI":"Arène","title":"Barrière De Pierres","uuid":3398}},{"geometry":{"coordinates":[6.83045,46.783794],"type":"Point"},"type":"Feature","properties":{"typePOI":"Arène","title":"Fontaine 1890","uuid":3399}},{"geometry":{"coordinates":[7.214378,46.974011],"type":"Point"},"type":"Feature","properties":{"typePOI":"Arène","title":"Schwimbad Kerzers","uuid":3400}},{"geometry":{"coordinates":[7.151327,46.794962],"type":"Point"},"type":"Feature","properties":{"typePOI":"Arène","title":"Fresque Fri-Son","uuid":3401}},{"geometry":{"coordinates":[7.084482,46.626488],"type":"Point"},"type":"Feature","properties":{"typePOI":"Arène","title":"Petite croix","uuid":3402}},{"geometry":{"coordinates":[7.110068,46.91795],"type":"Point"},"type":"Feature","properties":{"typePOI":"Arène","title":"Der brunnen ist weg, für immer","uuid":3403}},{"geometry":{"coordinates":[7.067084,46.62648],"type":"Point"},"type":"Feature","properties":{"typePOI":"Arène","title":"Globull","uuid":3404}},{"geometry":{"coordinates":[6.854636,46.849293],"type":"Point"},"type":"Feature","properties":{"typePOI":"Arène","title":"La Prillaz","uuid":3405}},{"geometry":{"coordinates":[7.091172,46.797893],"type":"Point"},"type":"Feature","properties":{"typePOI":"Arène","title":"6. Mobilité - Force","uuid":3406}},{"geometry":{"coordinates":[6.82248,46.620297],"type":"Point"},"type":"Feature","properties":{"typePOI":"Arène","title":"Château De Rue","uuid":3407}},{"geometry":{"coordinates":[7.02112,46.615685],"type":"Point"},"type":"Feature","properties":{"typePOI":"Arène","title":"Fontaine de quartier","uuid":3408}},{"geometry":{"coordinates":[6.888852,46.876524],"type":"Point"},"type":"Feature","properties":{"typePOI":"Arène","title":"Ancien lavoir","uuid":3409}},{"geometry":{"coordinates":[7.136851,46.842345],"type":"Point"},"type":"Feature","properties":{"typePOI":"Arène","title":"Carillon Pensier","uuid":3410}},{"geometry":{"coordinates":[7.096255,46.788951],"type":"Point"},"type":"Feature","properties":{"typePOI":"Arène","title":"Gare De Matran","uuid":3411}},{"geometry":{"coordinates":[7.054908,46.690142],"type":"Point"},"type":"Feature","properties":{"typePOI":"Arène","title":"HABITAT","uuid":3412}},{"geometry":{"coordinates":[7.066175,46.608996],"type":"Point"},"type":"Feature","properties":{"typePOI":"Arène","title":"Église De la tour-de-trême","uuid":3413}},{"geometry":{"coordinates":[7.017093,46.548793],"type":"Point"},"type":"Feature","properties":{"typePOI":"Arène","title":"Sommet du Moléson","uuid":3414}},{"geometry":{"coordinates":[6.901888,46.52238],"type":"Point"},"type":"Feature","properties":{"typePOI":"Arène","title":"Fontaine des rochettes","uuid":3415}},{"geometry":{"coordinates":[6.917427,46.697156],"type":"Point"},"type":"Feature","properties":{"typePOI":"Arène","title":"Tour Sans Tête","uuid":3416}},{"geometry":{"coordinates":[7.200756,46.740488],"type":"Point"},"type":"Feature","properties":{"typePOI":"Arène","title":"Eglise Bonnefontaine","uuid":3417}},{"geometry":{"coordinates":[7.124884,46.864898],"type":"Point"},"type":"Feature","properties":{"typePOI":"Arène","title":"Bureau de Poste de Courtepin","uuid":3418}},{"geometry":{"coordinates":[7.160787,46.950883],"type":"Point"},"type":"Feature","properties":{"typePOI":"Arène","title":"BLUMEN DER VERBOGENEN RÖHRE","uuid":3419}},{"geometry":{"coordinates":[7.297643,46.791183],"type":"Point"},"type":"Feature","properties":{"typePOI":"Arène","title":"Schwarzdorn","uuid":3420}},{"geometry":{"coordinates":[7.17198,46.744951],"type":"Point"},"type":"Feature","properties":{"typePOI":"Arène","title":"Hotel Croix Blanche","uuid":3421}},{"geometry":{"coordinates":[6.804544,46.821914],"type":"Point"},"type":"Feature","properties":{"typePOI":"Arène","title":"Alter Brunnen mit Sitzbänken","uuid":3422}},{"geometry":{"coordinates":[6.91912,46.696609],"type":"Point"},"type":"Feature","properties":{"typePOI":"Arène","title":"Romont Saint-Jacques Fountain","uuid":3423}},{"geometry":{"coordinates":[6.994922,46.716197],"type":"Point"},"type":"Feature","properties":{"typePOI":"Arène","title":"Panneau d'informations officielles","uuid":3424}},{"geometry":{"coordinates":[7.111007,46.70051],"type":"Point"},"type":"Feature","properties":{"typePOI":"Arène","title":"Fontaine à 2 goulots","uuid":3425}},{"geometry":{"coordinates":[7.25011,46.768673],"type":"Point"},"type":"Feature","properties":{"typePOI":"Arène","title":"Kirche Weissenstein","uuid":3426}},{"geometry":{"coordinates":[7.269835,46.862],"type":"Point"},"type":"Feature","properties":{"typePOI":"Arène","title":"Kreuz Mülital","uuid":3427}},{"geometry":{"coordinates":[7.092286,46.798377],"type":"Point"},"type":"Feature","properties":{"typePOI":"Arène","title":"5. Mobilité","uuid":3428}},{"geometry":{"coordinates":[7.055183,46.687394],"type":"Point"},"type":"Feature","properties":{"typePOI":"Arène","title":"Sainte vierge des bucherons","uuid":3429}},{"geometry":{"coordinates":[7.159649,46.801005],"type":"Point"},"type":"Feature","properties":{"typePOI":"Arène","title":"PORTE DE LA MAIGRAUGE","uuid":3430}},{"geometry":{"coordinates":[7.124368,46.866335],"type":"Point"},"type":"Feature","properties":{"typePOI":"Arène","title":"Salle Polyvalente","uuid":3431}},{"geometry":{"coordinates":[6.881099,46.87431],"type":"Point"},"type":"Feature","properties":{"typePOI":"Arène","title":"point de vue: place de tir d'aviation","uuid":3432}},{"geometry":{"coordinates":[7.117411,46.76517],"type":"Point"},"type":"Feature","properties":{"typePOI":"Arène","title":"Portail de l'Abbaye d'Hauterive","uuid":3433}},{"geometry":{"coordinates":[7.049957,46.767409],"type":"Point"},"type":"Feature","properties":{"typePOI":"Arène","title":"Abdominaux","uuid":3434}},{"geometry":{"coordinates":[6.853363,46.847528],"type":"Point"},"type":"Feature","properties":{"typePOI":"Arène","title":"Bibliothèque d'Estavayer-le-Lac","uuid":3435}},{"geometry":{"coordinates":[7.101233,46.806618],"type":"Point"},"type":"Feature","properties":{"typePOI":"Arène","title":"Entremêlé","uuid":3436}},{"geometry":{"coordinates":[6.810414,46.837695],"type":"Point"},"type":"Feature","properties":{"typePOI":"Arène","title":"Plage en zone naturelle prioritaire","uuid":3437}},{"geometry":{"coordinates":[7.151129,46.774553],"type":"Point"},"type":"Feature","properties":{"typePOI":"Arène","title":"Saturn","uuid":3438}},{"geometry":{"coordinates":[6.836885,46.505908],"type":"Point"},"type":"Feature","properties":{"typePOI":"Arène","title":"Cabane De Pic Nic","uuid":3439}},{"geometry":{"coordinates":[7.173081,46.81586],"type":"Point"},"type":"Feature","properties":{"typePOI":"Arène","title":"Tischtennis","uuid":3440}},{"geometry":{"coordinates":[7.154078,46.911809],"type":"Point"},"type":"Feature","properties":{"typePOI":"Arène","title":"Fly Away","uuid":3441}},{"geometry":{"coordinates":[7.134362,46.871169],"type":"Point"},"type":"Feature","properties":{"typePOI":"Arène","title":"Place de jeux","uuid":3442}},{"geometry":{"coordinates":[6.923248,46.699093],"type":"Point"},"type":"Feature","properties":{"typePOI":"Arène","title":"Fontaine J1918P","uuid":3443}},{"geometry":{"coordinates":[7.303278,46.829505],"type":"Point"},"type":"Feature","properties":{"typePOI":"Arène","title":"1. Kapelle im Schlosswald","uuid":3444}},{"geometry":{"coordinates":[7.256677,46.796374],"type":"Point"},"type":"Feature","properties":{"typePOI":"Arène","title":"Quartierspielplatz Alterswil","uuid":3445}},{"geometry":{"coordinates":[7.166427,46.804617],"type":"Point"},"type":"Feature","properties":{"typePOI":"Arène","title":"Ancien Couvent Des Augustins","uuid":3446}},{"geometry":{"coordinates":[7.257095,46.874046],"type":"Point"},"type":"Feature","properties":{"typePOI":"Arène","title":"Paroramakarte Staffelsholz","uuid":3447}},{"geometry":{"coordinates":[6.923743,46.603291],"type":"Point"},"type":"Feature","properties":{"typePOI":"Arène","title":"Le Sentier - La Cabane","uuid":3448}},{"geometry":{"coordinates":[7.021388,46.736277],"type":"Point"},"type":"Feature","properties":{"typePOI":"Arène","title":"Croix Métal","uuid":3449}},{"geometry":{"coordinates":[7.066458,46.856657],"type":"Point"},"type":"Feature","properties":{"typePOI":"Arène","title":"Creux-Follet","uuid":3450}},{"geometry":{"coordinates":[6.853278,46.525782],"type":"Point"},"type":"Feature","properties":{"typePOI":"Arène","title":"Gare de Bossonens","uuid":3451}},{"geometry":{"coordinates":[7.032379,46.769124],"type":"Point"},"type":"Feature","properties":{"typePOI":"Arène","title":"Croix Du Croisement","uuid":3452}},{"geometry":{"coordinates":[7.118563,46.964468],"type":"Point"},"type":"Feature","properties":{"typePOI":"Arène","title":"Hôtel de la Gare","uuid":3453}},{"geometry":{"coordinates":[7.11181,46.95999],"type":"Point"},"type":"Feature","properties":{"typePOI":"Arène","title":"La Petite Chapelle","uuid":3454}},{"geometry":{"coordinates":[7.208142,46.997898],"type":"Point"},"type":"Feature","properties":{"typePOI":"Arène","title":"1949 Brunnen","uuid":3455}},{"geometry":{"coordinates":[6.879694,46.657544],"type":"Point"},"type":"Feature","properties":{"typePOI":"Arène","title":"Sivirez Église Catholique","uuid":3456}},{"geometry":{"coordinates":[7.03715,46.773616],"type":"Point"},"type":"Feature","properties":{"typePOI":"Arène","title":"Place de jeu","uuid":3457}},{"geometry":{"coordinates":[7.119265,46.962809],"type":"Point"},"type":"Feature","properties":{"typePOI":"Arène","title":"Le Renard","uuid":3458}},{"geometry":{"coordinates":[7.285931,46.742041],"type":"Point"},"type":"Feature","properties":{"typePOI":"Arène","title":"Kirche Plaffeien","uuid":3459}},{"geometry":{"coordinates":[6.800802,46.826508],"type":"Point"},"type":"Feature","properties":{"typePOI":"Arène","title":"La Clairière","uuid":3460}},{"geometry":{"coordinates":[7.162668,46.619214],"type":"Point"},"type":"Feature","properties":{"typePOI":"Arène","title":"Charmey Church","uuid":3461}},{"geometry":{"coordinates":[7.082292,46.742231],"type":"Point"},"type":"Feature","properties":{"typePOI":"Arène","title":"Administration communale de Magnedens","uuid":3462}},{"geometry":{"coordinates":[7.122591,46.928936],"type":"Point"},"type":"Feature","properties":{"typePOI":"Arène","title":"Kulturzentrum Murten","uuid":3463}},{"geometry":{"coordinates":[7.192296,46.769244],"type":"Point"},"type":"Feature","properties":{"typePOI":"Arène","title":"Hippolyt","uuid":3464}},{"geometry":{"coordinates":[7.086731,46.757965],"type":"Point"},"type":"Feature","properties":{"typePOI":"Arène","title":"Église d'Ecuvillens","uuid":3465}},{"geometry":{"coordinates":[7.310008,46.865753],"type":"Point"},"type":"Feature","properties":{"typePOI":"Arène","title":"Post","uuid":3466}},{"geometry":{"coordinates":[7.107018,46.793827],"type":"Point"},"type":"Feature","properties":{"typePOI":"Arène","title":"Collection Mural","uuid":3467}},{"geometry":{"coordinates":[7.080535,46.693785],"type":"Point"},"type":"Feature","properties":{"typePOI":"Arène","title":"La Fontanna 1986","uuid":3468}},{"geometry":{"coordinates":[7.14757,46.811092],"type":"Point"},"type":"Feature","properties":{"typePOI":"Arène","title":"Clocher de Ste-Thérèse","uuid":3469}},{"geometry":{"coordinates":[7.265606,46.7625],"type":"Point"},"type":"Feature","properties":{"typePOI":"Arène","title":"Vitaparcours Posten 9","uuid":3470}},{"geometry":{"coordinates":[7.324455,46.869033],"type":"Point"},"type":"Feature","properties":{"typePOI":"Arène","title":"Vitaparcours 5 Uebersdorf","uuid":3471}},{"geometry":{"coordinates":[7.037311,46.562018],"type":"Point"},"type":"Feature","properties":{"typePOI":"Arène","title":"Lieu De Recueillement","uuid":3472}},{"geometry":{"coordinates":[7.099939,46.9199],"type":"Point"},"type":"Feature","properties":{"typePOI":"Arène","title":"Victoriam","uuid":3473}},{"geometry":{"coordinates":[7.139,46.800635],"type":"Point"},"type":"Feature","properties":{"typePOI":"Arène","title":"Le Bouclier Maya","uuid":3474}},{"geometry":{"coordinates":[7.241163,46.885253],"type":"Point"},"type":"Feature","properties":{"typePOI":"Arène","title":"Old Cannon","uuid":3475}},{"geometry":{"coordinates":[7.179429,46.748045],"type":"Point"},"type":"Feature","properties":{"typePOI":"Arène","title":"Aire de jeux et jardim du mouret","uuid":3476}},{"geometry":{"coordinates":[7.18924,46.891376],"type":"Point"},"type":"Feature","properties":{"typePOI":"Arène","title":"Station 9","uuid":3477}},{"geometry":{"coordinates":[6.969873,46.792563],"type":"Point"},"type":"Feature","properties":{"typePOI":"Arène","title":"Église Mannens","uuid":3478}},{"geometry":{"coordinates":[6.980582,46.889894],"type":"Point"},"type":"Feature","properties":{"typePOI":"Arène","title":"Roi Sur La Croix","uuid":3479}},{"geometry":{"coordinates":[7.17513,46.812767],"type":"Point"},"type":"Feature","properties":{"typePOI":"Arène","title":"Toboggan bossu","uuid":3480}},{"geometry":{"coordinates":[7.116654,46.928075],"type":"Point"},"type":"Feature","properties":{"typePOI":"Arène","title":"Bornellum Superior","uuid":3481}},{"geometry":{"coordinates":[7.277637,46.76191],"type":"Point"},"type":"Feature","properties":{"typePOI":"Arène","title":"Wegkreuz","uuid":3482}},{"geometry":{"coordinates":[7.088555,46.681045],"type":"Point"},"type":"Feature","properties":{"typePOI":"Arène","title":"FC Gumefens","uuid":3483}},{"geometry":{"coordinates":[7.111914,46.833457],"type":"Point"},"type":"Feature","properties":{"typePOI":"Arène","title":"Vieux Paysan","uuid":3484}},{"geometry":{"coordinates":[7.019999,46.66921],"type":"Point"},"type":"Feature","properties":{"typePOI":"Arène","title":"Le Cochon Sac Et Balais","uuid":3485}},{"geometry":{"coordinates":[7.325361,46.889452],"type":"Point"},"type":"Feature","properties":{"typePOI":"Arène","title":"Dreifaltigkeitssäule","uuid":3486}},{"geometry":{"coordinates":[7.166478,46.807081],"type":"Point"},"type":"Feature","properties":{"typePOI":"Arène","title":"Chez Bobonne","uuid":3487}},{"geometry":{"coordinates":[6.810996,46.827111],"type":"Point"},"type":"Feature","properties":{"typePOI":"Arène","title":"Croix 1944","uuid":3488}},{"geometry":{"coordinates":[7.0731,46.658869],"type":"Point"},"type":"Feature","properties":{"typePOI":"Arène","title":"La Blanche Église","uuid":3489}},{"geometry":{"coordinates":[7.059812,46.627129],"type":"Point"},"type":"Feature","properties":{"typePOI":"Arène","title":"Le marbrier assis","uuid":3490}},{"geometry":{"coordinates":[6.91813,46.693412],"type":"Point"},"type":"Feature","properties":{"typePOI":"Arène","title":"vitro parcours Romont: sentier du verre, suite","uuid":3491}},{"geometry":{"coordinates":[6.905011,46.520679],"type":"Point"},"type":"Feature","properties":{"typePOI":"Arène","title":"Menhir Percé","uuid":3492}},{"geometry":{"coordinates":[7.080578,46.778527],"type":"Point"},"type":"Feature","properties":{"typePOI":"Arène","title":"Le Grand Ours","uuid":3493}},{"geometry":{"coordinates":[7.041388,46.815535],"type":"Point"},"type":"Feature","properties":{"typePOI":"Arène","title":"Garfield","uuid":3494}},{"geometry":{"coordinates":[6.848501,46.853616],"type":"Point"},"type":"Feature","properties":{"typePOI":"Arène","title":"De La Rose Minigolf","uuid":3495}},{"geometry":{"coordinates":[6.817603,46.838249],"type":"Point"},"type":"Feature","properties":{"typePOI":"Arène","title":"Chasse au Sanglier Info-Point","uuid":3496}},{"geometry":{"coordinates":[7.100783,46.719956],"type":"Point"},"type":"Feature","properties":{"typePOI":"Arène","title":"Eglise de Rossens","uuid":3497}},{"geometry":{"coordinates":[7.25917,46.795387],"type":"Point"},"type":"Feature","properties":{"typePOI":"Arène","title":"Kirchenbrunnen","uuid":3498}},{"geometry":{"coordinates":[7.165441,46.773838],"type":"Point"},"type":"Feature","properties":{"typePOI":"Arène","title":"Place de jeux du Confin","uuid":3499}},{"geometry":{"coordinates":[7.0909,46.913703],"type":"Point"},"type":"Feature","properties":{"typePOI":"Arène","title":"De Castella-Platz","uuid":3500}},{"geometry":{"coordinates":[7.169856,46.791245],"type":"Point"},"type":"Feature","properties":{"typePOI":"Arène","title":"Forêt et eau potable","uuid":3501}},{"geometry":{"coordinates":[7.1306,46.949429],"type":"Point"},"type":"Feature","properties":{"typePOI":"Arène","title":"Aussichtsturm Chablais","uuid":3502}},{"geometry":{"coordinates":[7.179267,46.806104],"type":"Point"},"type":"Feature","properties":{"typePOI":"Arène","title":"Quatier Spielplatz","uuid":3503}},{"geometry":{"coordinates":[7.223909,46.840723],"type":"Point"},"type":"Feature","properties":{"typePOI":"Arène","title":"Kreuz in Ried","uuid":3504}},{"geometry":{"coordinates":[7.008197,46.664243],"type":"Point"},"type":"Feature","properties":{"typePOI":"Arène","title":"Bienvenue À La Forêt","uuid":3505}},{"geometry":{"coordinates":[6.918403,46.695557],"type":"Point"},"type":"Feature","properties":{"typePOI":"Arène","title":"Romont Church","uuid":3506}},{"geometry":{"coordinates":[7.161197,46.775794],"type":"Point"},"type":"Feature","properties":{"typePOI":"Arène","title":"Le Guitariste","uuid":3507}},{"geometry":{"coordinates":[7.113159,46.843121],"type":"Point"},"type":"Feature","properties":{"typePOI":"Arène","title":"Centre Forestier La Corbaz","uuid":3508}},{"geometry":{"coordinates":[6.848885,46.854333],"type":"Point"},"type":"Feature","properties":{"typePOI":"Arène","title":"Les Frogs du Club de Pétanque","uuid":3509}},{"geometry":{"coordinates":[7.276091,46.841034],"type":"Point"},"type":"Feature","properties":{"typePOI":"Arène","title":"Jakobs Kapelle","uuid":3510}},{"geometry":{"coordinates":[7.250827,46.818203],"type":"Point"},"type":"Feature","properties":{"typePOI":"Arène","title":"Hl. Sebastians Kapelle","uuid":3511}},{"geometry":{"coordinates":[7.179912,46.943825],"type":"Point"},"type":"Feature","properties":{"typePOI":"Arène","title":"Fasshäuschen mit Adler","uuid":3512}},{"geometry":{"coordinates":[7.313574,46.891492],"type":"Point"},"type":"Feature","properties":{"typePOI":"Arène","title":"Sense Holzglockenturm","uuid":3513}},{"geometry":{"coordinates":[7.149227,46.780077],"type":"Point"},"type":"Feature","properties":{"typePOI":"Arène","title":"Marly Le Petit","uuid":3514}},{"geometry":{"coordinates":[7.027599,46.802866],"type":"Point"},"type":"Feature","properties":{"typePOI":"Arène","title":"Poisson Ancre","uuid":3515}},{"geometry":{"coordinates":[7.228206,46.89415],"type":"Point"},"type":"Feature","properties":{"typePOI":"Arène","title":"Kirche Bösingen","uuid":3516}},{"geometry":{"coordinates":[6.827789,46.832926],"type":"Point"},"type":"Feature","properties":{"typePOI":"Arène","title":"Nouvelle fontaine du tilleul","uuid":3517}},{"geometry":{"coordinates":[6.786427,46.816951],"type":"Point"},"type":"Feature","properties":{"typePOI":"Arène","title":"Gare de Cheyres","uuid":3518}},{"geometry":{"coordinates":[7.187826,46.891251],"type":"Point"},"type":"Feature","properties":{"typePOI":"Arène","title":"Station 11","uuid":3519}},{"geometry":{"coordinates":[7.152489,46.799563],"type":"Point"},"type":"Feature","properties":{"typePOI":"Arène","title":"Simplon Invader","uuid":3520}},{"geometry":{"coordinates":[7.111351,46.619711],"type":"Point"},"type":"Feature","properties":{"typePOI":"Arène","title":"Place de jeux Denis","uuid":3521}},{"geometry":{"coordinates":[7.114687,46.797971],"type":"Point"},"type":"Feature","properties":{"typePOI":"Arène","title":"Scène Forestière","uuid":3522}},{"geometry":{"coordinates":[7.274094,46.736509],"type":"Point"},"type":"Feature","properties":{"typePOI":"Arène","title":"Wegkreuz Plötscha","uuid":3523}},{"geometry":{"coordinates":[7.073246,46.582579],"type":"Point"},"type":"Feature","properties":{"typePOI":"Arène","title":"Gare De Gruyères","uuid":3524}},{"geometry":{"coordinates":[7.117204,46.930245],"type":"Point"},"type":"Feature","properties":{"typePOI":"Arène","title":"Goldenes Schiff","uuid":3525}},{"geometry":{"coordinates":[7.083125,46.540744],"type":"Point"},"type":"Feature","properties":{"typePOI":"Arène","title":"Memorial Mission Catholique","uuid":3526}},{"geometry":{"coordinates":[6.993824,46.770398],"type":"Point"},"type":"Feature","properties":{"typePOI":"Arène","title":"Les Ours Corserey","uuid":3527}},{"geometry":{"coordinates":[7.064718,46.656647],"type":"Point"},"type":"Feature","properties":{"typePOI":"Arène","title":"Place Bernard Romanens","uuid":3528}},{"geometry":{"coordinates":[7.105973,46.817009],"type":"Point"},"type":"Feature","properties":{"typePOI":"Arène","title":"Gare Belfaux CFF","uuid":3529}},{"geometry":{"coordinates":[7.221832,46.983611],"type":"Point"},"type":"Feature","properties":{"typePOI":"Arène","title":"Waldfriedensbrünnli","uuid":3530}},{"geometry":{"coordinates":[7.010123,46.665059],"type":"Point"},"type":"Feature","properties":{"typePOI":"Arène","title":"Le Pinguin Solar","uuid":3531}},{"geometry":{"coordinates":[7.103577,46.67089],"type":"Point"},"type":"Feature","properties":{"typePOI":"Arène","title":"Vers le soir","uuid":3532}},{"geometry":{"coordinates":[7.337292,46.854998],"type":"Point"},"type":"Feature","properties":{"typePOI":"Arène","title":"Kapelle Hostettle-Lärchenberg","uuid":3533}},{"geometry":{"coordinates":[7.182303,46.890604],"type":"Point"},"type":"Feature","properties":{"typePOI":"Arène","title":"Station 14","uuid":3534}},{"geometry":{"coordinates":[7.051889,46.762603],"type":"Point"},"type":"Feature","properties":{"typePOI":"Arène","title":"Croix Droite","uuid":3535}},{"geometry":{"coordinates":[7.041472,46.785141],"type":"Point"},"type":"Feature","properties":{"typePOI":"Arène","title":"Fontaine 2003","uuid":3536}},{"geometry":{"coordinates":[7.018942,46.61657],"type":"Point"},"type":"Feature","properties":{"typePOI":"Arène","title":"Eglise De Vuadens","uuid":3537}},{"geometry":{"coordinates":[7.118417,46.929157],"type":"Point"},"type":"Feature","properties":{"typePOI":"Arène","title":"Porte de Berne","uuid":3538}},{"geometry":{"coordinates":[6.874962,46.658739],"type":"Point"},"type":"Feature","properties":{"typePOI":"Arène","title":"Foot Fontaine","uuid":3539}},{"geometry":{"coordinates":[7.081005,46.583418],"type":"Point"},"type":"Feature","properties":{"typePOI":"Arène","title":"Fontaine","uuid":3540}},{"geometry":{"coordinates":[7.248451,46.854655],"type":"Point"},"type":"Feature","properties":{"typePOI":"Arène","title":"RF Fountain","uuid":3541}},{"geometry":{"coordinates":[6.993899,46.717435],"type":"Point"},"type":"Feature","properties":{"typePOI":"Arène","title":"Église D'Orsonnens","uuid":3542}},{"geometry":{"coordinates":[7.272568,46.728248],"type":"Point"},"type":"Feature","properties":{"typePOI":"Arène","title":"Vitaparcours Posten 5","uuid":3543}},{"geometry":{"coordinates":[7.002164,46.756323],"type":"Point"},"type":"Feature","properties":{"typePOI":"Arène","title":"Metal Circle","uuid":3544}},{"geometry":{"coordinates":[6.907508,46.710537],"type":"Point"},"type":"Feature","properties":{"typePOI":"Arène","title":"Le Relais 1978 (Cabane de la Mycologie)","uuid":3545}},{"geometry":{"coordinates":[7.05831,46.620275],"type":"Point"},"type":"Feature","properties":{"typePOI":"Arène","title":"Église Saint-Pierre-aux-liens","uuid":3546}},{"geometry":{"coordinates":[7.137444,46.728453],"type":"Point"},"type":"Feature","properties":{"typePOI":"Arène","title":"Le clocher","uuid":3547}},{"geometry":{"coordinates":[7.260503,46.822415],"type":"Point"},"type":"Feature","properties":{"typePOI":"Arène","title":"Gemeindehaus St. Antoni","uuid":3548}},{"geometry":{"coordinates":[7.097218,46.952496],"type":"Point"},"type":"Feature","properties":{"typePOI":"Arène","title":"Bel-air","uuid":3549}},{"geometry":{"coordinates":[7.061801,46.767585],"type":"Point"},"type":"Feature","properties":{"typePOI":"Arène","title":"Vineet\u2019s place","uuid":3550}},{"geometry":{"coordinates":[7.252596,46.861844],"type":"Point"},"type":"Feature","properties":{"typePOI":"Arène","title":"Fabromont","uuid":3551}},{"geometry":{"coordinates":[7.112967,46.92303],"type":"Point"},"type":"Feature","properties":{"typePOI":"Arène","title":"Zeus Fountain","uuid":3552}},{"geometry":{"coordinates":[7.103229,46.822769],"type":"Point"},"type":"Feature","properties":{"typePOI":"Arène","title":"Le Laitier","uuid":3553}},{"geometry":{"coordinates":[7.103012,46.819628],"type":"Point"},"type":"Feature","properties":{"typePOI":"Arène","title":"Place de jeux Champ Bonjard","uuid":3554}},{"geometry":{"coordinates":[7.118598,46.917125],"type":"Point"},"type":"Feature","properties":{"typePOI":"Arène","title":"Schlacht Denkmal","uuid":3555}},{"geometry":{"coordinates":[7.285124,46.6655],"type":"Point"},"type":"Feature","properties":{"typePOI":"Arène","title":"Schwarzsee Lions","uuid":3556}},{"geometry":{"coordinates":[7.114946,46.839147],"type":"Point"},"type":"Feature","properties":{"typePOI":"Arène","title":"Chapelle de La Corbaz","uuid":3557}},{"geometry":{"coordinates":[7.099456,46.785778],"type":"Point"},"type":"Feature","properties":{"typePOI":"Arène","title":"Dancing Modern Statue","uuid":3558}},{"geometry":{"coordinates":[7.229922,46.893282],"type":"Point"},"type":"Feature","properties":{"typePOI":"Arène","title":"The Roman Fountain","uuid":3559}},{"geometry":{"coordinates":[6.845397,46.642429],"type":"Point"},"type":"Feature","properties":{"typePOI":"Arène","title":"Picture On Wall","uuid":3560}},{"geometry":{"coordinates":[7.104033,46.718821],"type":"Point"},"type":"Feature","properties":{"typePOI":"Arène","title":"Ancienne chapelle de Rossens","uuid":3561}},{"geometry":{"coordinates":[7.138055,46.941768],"type":"Point"},"type":"Feature","properties":{"typePOI":"Arène","title":"Pink Metal Car","uuid":3562}},{"geometry":{"coordinates":[7.0947,46.741274],"type":"Point"},"type":"Feature","properties":{"typePOI":"Arène","title":"Bloc De Tuff","uuid":3563}},{"geometry":{"coordinates":[7.202195,46.932814],"type":"Point"},"type":"Feature","properties":{"typePOI":"Arène","title":"Wagenrad Brunnen","uuid":3564}},{"geometry":{"coordinates":[7.162201,46.811903],"type":"Point"},"type":"Feature","properties":{"typePOI":"Arène","title":"Boulodrome","uuid":3565}},{"geometry":{"coordinates":[7.149869,46.912723],"type":"Point"},"type":"Feature","properties":{"typePOI":"Arène","title":"Gemeindeschreiberei Salvenach","uuid":3566}},{"geometry":{"coordinates":[7.117383,46.864622],"type":"Point"},"type":"Feature","properties":{"typePOI":"Arène","title":"Rocher De La Communal","uuid":3567}},{"geometry":{"coordinates":[6.890862,46.81467],"type":"Point"},"type":"Feature","properties":{"typePOI":"Arène","title":"Fontaine Cugy FR","uuid":3568}},{"geometry":{"coordinates":[7.150842,46.821481],"type":"Point"},"type":"Feature","properties":{"typePOI":"Arène","title":"Conciergerie De L'ECAB","uuid":3569}},{"geometry":{"coordinates":[7.157429,46.622156],"type":"Point"},"type":"Feature","properties":{"typePOI":"Arène","title":"Fontaine offert par la caisse Raiffeisen","uuid":3570}},{"geometry":{"coordinates":[7.12109,46.788298],"type":"Point"},"type":"Feature","properties":{"typePOI":"Arène","title":"Vache Villars","uuid":3571}},{"geometry":{"coordinates":[6.877686,46.53364],"type":"Point"},"type":"Feature","properties":{"typePOI":"Arène","title":"Croix Des Lapies","uuid":3572}},{"geometry":{"coordinates":[6.81219,46.834201],"type":"Point"},"type":"Feature","properties":{"typePOI":"Arène","title":"Château De Font","uuid":3573}},{"geometry":{"coordinates":[7.158644,46.620661],"type":"Point"},"type":"Feature","properties":{"typePOI":"Arène","title":"Chapelle blanche Charmey","uuid":3574}},{"geometry":{"coordinates":[7.014283,46.666785],"type":"Point"},"type":"Feature","properties":{"typePOI":"Arène","title":"Perroquet Wood","uuid":3575}},{"geometry":{"coordinates":[7.107484,46.803337],"type":"Point"},"type":"Feature","properties":{"typePOI":"Arène","title":"Banc En Rondin","uuid":3576}},{"geometry":{"coordinates":[6.992062,46.810586],"type":"Point"},"type":"Feature","properties":{"typePOI":"Arène","title":"Église De Montagny-Les-Monts","uuid":3577}},{"geometry":{"coordinates":[7.123962,46.790377],"type":"Point"},"type":"Feature","properties":{"typePOI":"Arène","title":"Statue au Lion","uuid":3578}},{"geometry":{"coordinates":[6.956963,46.720142],"type":"Point"},"type":"Feature","properties":{"typePOI":"Arène","title":"Église De Villaz-saint-pierre","uuid":3579}},{"geometry":{"coordinates":[7.06613,46.721918],"type":"Point"},"type":"Feature","properties":{"typePOI":"Arène","title":"Eglise de Farvagny","uuid":3580}},{"geometry":{"coordinates":[7.094985,46.785894],"type":"Point"},"type":"Feature","properties":{"typePOI":"Arène","title":"Laiterie De Matran","uuid":3581}},{"geometry":{"coordinates":[6.836704,46.582798],"type":"Point"},"type":"Feature","properties":{"typePOI":"Arène","title":"Croix D'entrée De Chapelle","uuid":3582}},{"geometry":{"coordinates":[7.196644,46.770163],"type":"Point"},"type":"Feature","properties":{"typePOI":"Arène","title":"Croix De La Fromagerie","uuid":3583}},{"geometry":{"coordinates":[7.151355,46.803172],"type":"Point"},"type":"Feature","properties":{"typePOI":"Arène","title":"Gare Fribourg \/ Freiburg","uuid":3584}},{"geometry":{"coordinates":[7.163446,46.792477],"type":"Point"},"type":"Feature","properties":{"typePOI":"Arène","title":"Réserve Naturelle","uuid":3585}},{"geometry":{"coordinates":[7.311002,46.865953],"type":"Point"},"type":"Feature","properties":{"typePOI":"Arène","title":"Schloss Ueberstorf","uuid":3586}},{"geometry":{"coordinates":[6.897945,46.537637],"type":"Point"},"type":"Feature","properties":{"typePOI":"Arène","title":"Centre sportif","uuid":3587}},{"geometry":{"coordinates":[7.165735,46.804202],"type":"Point"},"type":"Feature","properties":{"typePOI":"Arène","title":"Fontaine Poissons","uuid":3588}},{"geometry":{"coordinates":[7.12559,46.930159],"type":"Point"},"type":"Feature","properties":{"typePOI":"Arène","title":"Sangoku Graffiti","uuid":3589}},{"geometry":{"coordinates":[7.125729,46.954625],"type":"Point"},"type":"Feature","properties":{"typePOI":"Arène","title":"Wildschwein im Walde","uuid":3590}},{"geometry":{"coordinates":[6.8008,46.8173],"type":"Point"},"type":"Feature","properties":{"typePOI":"Arène","title":"Notre-Dame de Bonne Fontaine","uuid":3591}},{"geometry":{"coordinates":[6.803973,46.827301],"type":"Point"},"type":"Feature","properties":{"typePOI":"Arène","title":"Point de Vue Grande Cariçaie","uuid":3592}},{"geometry":{"coordinates":[7.086411,46.95382],"type":"Point"},"type":"Feature","properties":{"typePOI":"Arène","title":"Roches Grises","uuid":3593}},{"geometry":{"coordinates":[7.117085,46.793741],"type":"Point"},"type":"Feature","properties":{"typePOI":"Arène","title":"Lapin Végétal","uuid":3594}},{"geometry":{"coordinates":[7.116797,46.923708],"type":"Point"},"type":"Feature","properties":{"typePOI":"Arène","title":"rostige Eiche","uuid":3595}},{"geometry":{"coordinates":[7.276118,46.663981],"type":"Point"},"type":"Feature","properties":{"typePOI":"Arène","title":"Kletterwand - Campus Schwarzsee","uuid":3596}},{"geometry":{"coordinates":[6.84575,46.848283],"type":"Point"},"type":"Feature","properties":{"typePOI":"Arène","title":"Fleur De Lys","uuid":3597}},{"geometry":{"coordinates":[7.262135,46.793901],"type":"Point"},"type":"Feature","properties":{"typePOI":"Arène","title":"Wandtattoo","uuid":3598}},{"geometry":{"coordinates":[6.899716,46.691852],"type":"Point"},"type":"Feature","properties":{"typePOI":"Arène","title":"Chris de Billens","uuid":3599}},{"geometry":{"coordinates":[7.108262,46.824456],"type":"Point"},"type":"Feature","properties":{"typePOI":"Arène","title":"Tête de Bouddha","uuid":3600}},{"geometry":{"coordinates":[7.065641,46.609987],"type":"Point"},"type":"Feature","properties":{"typePOI":"Arène","title":"Letter M","uuid":3601}},{"geometry":{"coordinates":[7.286269,46.757757],"type":"Point"},"type":"Feature","properties":{"typePOI":"Arène","title":"Willkommen im Sense-Oberland","uuid":3602}},{"geometry":{"coordinates":[7.137609,46.938104],"type":"Point"},"type":"Feature","properties":{"typePOI":"Arène","title":"Botanischer Weg","uuid":3603}},{"geometry":{"coordinates":[7.003069,46.76014],"type":"Point"},"type":"Feature","properties":{"typePOI":"Arène","title":"Église De Lentigny","uuid":3604}},{"geometry":{"coordinates":[6.995118,46.817398],"type":"Point"},"type":"Feature","properties":{"typePOI":"Arène","title":"Mobilisés","uuid":3605}},{"geometry":{"coordinates":[6.912743,46.658975],"type":"Point"},"type":"Feature","properties":{"typePOI":"Arène","title":"Église De Villaraboud","uuid":3606}},{"geometry":{"coordinates":[6.830185,46.645579],"type":"Point"},"type":"Feature","properties":{"typePOI":"Arène","title":"Zegro Statue","uuid":3607}},{"geometry":{"coordinates":[7.069087,46.604396],"type":"Point"},"type":"Feature","properties":{"typePOI":"Arène","title":"Pont en bois naturel","uuid":3608}},{"geometry":{"coordinates":[7.108495,46.60711],"type":"Point"},"type":"Feature","properties":{"typePOI":"Arène","title":"Maison Cailler","uuid":3609}},{"geometry":{"coordinates":[7.217954,46.807625],"type":"Point"},"type":"Feature","properties":{"typePOI":"Arène","title":"Jesus, Jean, Marie & Marie Madeleine","uuid":3610}},{"geometry":{"coordinates":[7.239859,46.770198],"type":"Point"},"type":"Feature","properties":{"typePOI":"Arène","title":"Jesus sur la Croix","uuid":3611}},{"geometry":{"coordinates":[7.279081,46.728286],"type":"Point"},"type":"Feature","properties":{"typePOI":"Arène","title":"Vitaparcours Posten 14","uuid":3612}},{"geometry":{"coordinates":[7.166955,46.912844],"type":"Point"},"type":"Feature","properties":{"typePOI":"Arène","title":"Eichen Und Biodiversität","uuid":3613}},{"geometry":{"coordinates":[7.168072,46.802693],"type":"Point"},"type":"Feature","properties":{"typePOI":"Arène","title":"Fontaine De Moustique","uuid":3614}},{"geometry":{"coordinates":[7.092556,46.859218],"type":"Point"},"type":"Feature","properties":{"typePOI":"Arène","title":"Poste 12 - Les ennemis des abeilles","uuid":3615}},{"geometry":{"coordinates":[6.962655,46.71727],"type":"Point"},"type":"Feature","properties":{"typePOI":"Arène","title":"Sphère Soudée IMC","uuid":3616}},{"geometry":{"coordinates":[7.128088,46.779079],"type":"Point"},"type":"Feature","properties":{"typePOI":"Arène","title":"Eau de qualité","uuid":3617}},{"geometry":{"coordinates":[7.085199,46.539427],"type":"Point"},"type":"Feature","properties":{"typePOI":"Arène","title":"Fontaine De La Ferme De Bois","uuid":3618}},{"geometry":{"coordinates":[7.145543,46.797155],"type":"Point"},"type":"Feature","properties":{"typePOI":"Arène","title":"Le Fantôme","uuid":3619}},{"geometry":{"coordinates":[7.283378,46.610071],"type":"Point"},"type":"Feature","properties":{"typePOI":"Arène","title":"Kapelle","uuid":3620}},{"geometry":{"coordinates":[7.122202,46.928864],"type":"Point"},"type":"Feature","properties":{"typePOI":"Arène","title":"Sculpture Pinceaux Beaulieupark","uuid":3621}},{"geometry":{"coordinates":[7.219799,46.808959],"type":"Point"},"type":"Feature","properties":{"typePOI":"Arène","title":"Natura 2007","uuid":3622}},{"geometry":{"coordinates":[7.10033,46.858418],"type":"Point"},"type":"Feature","properties":{"typePOI":"Arène","title":"Mission 1954","uuid":3623}},{"geometry":{"coordinates":[7.093417,46.801483],"type":"Point"},"type":"Feature","properties":{"typePOI":"Arène","title":"1. Mobilité","uuid":3624}},{"geometry":{"coordinates":[6.897928,46.651736],"type":"Point"},"type":"Feature","properties":{"typePOI":"Arène","title":"Wood Cross","uuid":3625}},{"geometry":{"coordinates":[6.86647,46.600227],"type":"Point"},"type":"Feature","properties":{"typePOI":"Arène","title":"Mission 1953","uuid":3626}},{"geometry":{"coordinates":[6.812008,46.802425],"type":"Point"},"type":"Feature","properties":{"typePOI":"Arène","title":"Sculpture avec armoiries de 1997","uuid":3627}},{"geometry":{"coordinates":[7.1064,46.956774],"type":"Point"},"type":"Feature","properties":{"typePOI":"Arène","title":"Office du Tourisme-Nant","uuid":3628}},{"geometry":{"coordinates":[7.099703,46.902063],"type":"Point"},"type":"Feature","properties":{"typePOI":"Arène","title":"FC Courgevaux","uuid":3629}},{"geometry":{"coordinates":[7.136509,46.79034],"type":"Point"},"type":"Feature","properties":{"typePOI":"Arène","title":"Cygne Du Platy","uuid":3630}},{"geometry":{"coordinates":[6.821708,46.835969],"type":"Point"},"type":"Feature","properties":{"typePOI":"Arène","title":"Croix de la vierge noire. 1809","uuid":3631}},{"geometry":{"coordinates":[7.126533,46.912099],"type":"Point"},"type":"Feature","properties":{"typePOI":"Arène","title":"Schloss Münchenwiler","uuid":3632}},{"geometry":{"coordinates":[7.136901,46.812723],"type":"Point"},"type":"Feature","properties":{"typePOI":"Arène","title":"Métal - Caisse Compensation","uuid":3633}},{"geometry":{"coordinates":[7.141179,46.812469],"type":"Point"},"type":"Feature","properties":{"typePOI":"Arène","title":"Les Petits Hommes Bleus","uuid":3634}},{"geometry":{"coordinates":[7.264572,46.76371],"type":"Point"},"type":"Feature","properties":{"typePOI":"Arène","title":"Vitaparcours Posten 12","uuid":3635}},{"geometry":{"coordinates":[7.085928,46.94912],"type":"Point"},"type":"Feature","properties":{"typePOI":"Arène","title":"Fontaine Coiff'air","uuid":3636}},{"geometry":{"coordinates":[7.257321,46.861796],"type":"Point"},"type":"Feature","properties":{"typePOI":"Arène","title":"Animal Walk","uuid":3637}},{"geometry":{"coordinates":[6.771619,46.810198],"type":"Point"},"type":"Feature","properties":{"typePOI":"Arène","title":"Blechmann","uuid":3638}},{"geometry":{"coordinates":[7.1908,46.846111],"type":"Point"},"type":"Feature","properties":{"typePOI":"Arène","title":"Church of Düdingen","uuid":3639}},{"geometry":{"coordinates":[7.158487,46.818858],"type":"Point"},"type":"Feature","properties":{"typePOI":"Arène","title":"Croix Du Christ","uuid":3640}},{"geometry":{"coordinates":[7.132854,46.79387],"type":"Point"},"type":"Feature","properties":{"typePOI":"Arène","title":"Jet Cormanon","uuid":3641}},{"geometry":{"coordinates":[7.135019,46.780295],"type":"Point"},"type":"Feature","properties":{"typePOI":"Arène","title":"Wertvoller Waldboden","uuid":3642}},{"geometry":{"coordinates":[6.993036,46.623832],"type":"Point"},"type":"Feature","properties":{"typePOI":"Arène","title":"Prayshop Vaulruz","uuid":3643}},{"geometry":{"coordinates":[7.088569,46.780643],"type":"Point"},"type":"Feature","properties":{"typePOI":"Arène","title":"La Fontaine Du Troll","uuid":3644}},{"geometry":{"coordinates":[7.319912,46.888626],"type":"Point"},"type":"Feature","properties":{"typePOI":"Arène","title":"Pole at the Train Station Flamatt","uuid":3645}},{"geometry":{"coordinates":[7.124325,46.874174],"type":"Point"},"type":"Feature","properties":{"typePOI":"Arène","title":"Saut Alternatif","uuid":3646}},{"geometry":{"coordinates":[7.150501,46.802119],"type":"Point"},"type":"Feature","properties":{"typePOI":"Arène","title":"Ancienne Gare Fribourg \/ Freiburg","uuid":3647}},{"geometry":{"coordinates":[7.096812,46.958339],"type":"Point"},"type":"Feature","properties":{"typePOI":"Arène","title":"Fontaine de fôret","uuid":3648}},{"geometry":{"coordinates":[7.159365,46.634229],"type":"Point"},"type":"Feature","properties":{"typePOI":"Arène","title":"Fontaine en Bois de Cerniat","uuid":3649}},{"geometry":{"coordinates":[7.063955,46.611443],"type":"Point"},"type":"Feature","properties":{"typePOI":"Arène","title":"Onlive & Prismus","uuid":3650}},{"geometry":{"coordinates":[7.078397,46.777757],"type":"Point"},"type":"Feature","properties":{"typePOI":"Arène","title":"Le Mini Ours","uuid":3651}},{"geometry":{"coordinates":[6.776518,46.81208],"type":"Point"},"type":"Feature","properties":{"typePOI":"Arène","title":"Infotafel Biodiversität","uuid":3652}},{"geometry":{"coordinates":[6.87867,46.527682],"type":"Point"},"type":"Feature","properties":{"typePOI":"Arène","title":"Église Du Village","uuid":3653}},{"geometry":{"coordinates":[7.123578,46.800694],"type":"Point"},"type":"Feature","properties":{"typePOI":"Arène","title":"Spinning Jesa","uuid":3654}},{"geometry":{"coordinates":[7.257805,46.86101],"type":"Point"},"type":"Feature","properties":{"typePOI":"Arène","title":"Containart","uuid":3655}},{"geometry":{"coordinates":[6.852846,46.510908],"type":"Point"},"type":"Feature","properties":{"typePOI":"Arène","title":"Chapelle d'Attalens","uuid":3656}},{"geometry":{"coordinates":[7.048079,46.693512],"type":"Point"},"type":"Feature","properties":{"typePOI":"Arène","title":"Réplique De La Tourelle Du Gibloux","uuid":3657}},{"geometry":{"coordinates":[7.159844,46.805843],"type":"Point"},"type":"Feature","properties":{"typePOI":"Arène","title":"Fontaine des Escaliers","uuid":3658}},{"geometry":{"coordinates":[6.976519,46.785937],"type":"Point"},"type":"Feature","properties":{"typePOI":"Arène","title":"Place de jeu le relais du marronnier","uuid":3659}},{"geometry":{"coordinates":[7.129943,46.818076],"type":"Point"},"type":"Feature","properties":{"typePOI":"Arène","title":"Le Cube Transpercé","uuid":3660}},{"geometry":{"coordinates":[6.847646,46.62314],"type":"Point"},"type":"Feature","properties":{"typePOI":"Arène","title":"Croix de chemin vers l'ancienne école","uuid":3661}},{"geometry":{"coordinates":[6.900374,46.700593],"type":"Point"},"type":"Feature","properties":{"typePOI":"Arène","title":"Terrain de jeux multisports","uuid":3662}},{"geometry":{"coordinates":[6.822744,46.601521],"type":"Point"},"type":"Feature","properties":{"typePOI":"Arène","title":"Eglise Promasens","uuid":3663}},{"geometry":{"coordinates":[6.77552,46.814057],"type":"Point"},"type":"Feature","properties":{"typePOI":"Arène","title":"Holzsteg am Seeufer","uuid":3664}},{"geometry":{"coordinates":[7.064138,46.612486],"type":"Point"},"type":"Feature","properties":{"typePOI":"Arène","title":"Fontaine Rue De La Paix","uuid":3665}},{"geometry":{"coordinates":[6.929389,46.902476],"type":"Point"},"type":"Feature","properties":{"typePOI":"Arène","title":"Village Lacustre","uuid":3666}},{"geometry":{"coordinates":[7.085188,46.565379],"type":"Point"},"type":"Feature","properties":{"typePOI":"Arène","title":"Gare D'enney","uuid":3667}},{"geometry":{"coordinates":[7.235839,46.851415],"type":"Point"},"type":"Feature","properties":{"typePOI":"Arène","title":"Dälihubel 706,6m","uuid":3668}},{"geometry":{"coordinates":[7.052898,46.707773],"type":"Point"},"type":"Feature","properties":{"typePOI":"Arène","title":"Eglise Vuisternens-en-Ogoz","uuid":3669}},{"geometry":{"coordinates":[6.939063,46.629137],"type":"Point"},"type":"Feature","properties":{"typePOI":"Arène","title":"Eglise De La Joux","uuid":3670}},{"geometry":{"coordinates":[6.873924,46.870323],"type":"Point"},"type":"Feature","properties":{"typePOI":"Arène","title":"réserves naturelles de Chevroux et des Grèves de la Corbière","uuid":3671}},{"geometry":{"coordinates":[7.199073,46.974725],"type":"Point"},"type":"Feature","properties":{"typePOI":"Arène","title":"Cows Statue","uuid":3672}},{"geometry":{"coordinates":[6.931048,46.607779],"type":"Point"},"type":"Feature","properties":{"typePOI":"Arène","title":"Le Sentier - Le hiboux","uuid":3673}},{"geometry":{"coordinates":[7.174017,46.845466],"type":"Point"},"type":"Feature","properties":{"typePOI":"Arène","title":"Aussichtsturm Düdinger Moos","uuid":3674}},{"geometry":{"coordinates":[7.175214,46.913588],"type":"Point"},"type":"Feature","properties":{"typePOI":"Arène","title":"Baumtelefon","uuid":3675}},{"geometry":{"coordinates":[7.074837,46.54212],"type":"Point"},"type":"Feature","properties":{"typePOI":"Arène","title":"Jc","uuid":3676}},{"geometry":{"coordinates":[7.17775,46.751109],"type":"Point"},"type":"Feature","properties":{"typePOI":"Arène","title":"église praroman","uuid":3677}},{"geometry":{"coordinates":[7.154763,46.794361],"type":"Point"},"type":"Feature","properties":{"typePOI":"Arène","title":"Chocolat Villars","uuid":3678}},{"geometry":{"coordinates":[7.165112,46.803523],"type":"Point"},"type":"Feature","properties":{"typePOI":"Arène","title":"La Lampe Du Génie","uuid":3679}},{"geometry":{"coordinates":[7.015634,46.666979],"type":"Point"},"type":"Feature","properties":{"typePOI":"Arène","title":"Le Pèlerin","uuid":3680}},{"geometry":{"coordinates":[7.113348,46.604709],"type":"Point"},"type":"Feature","properties":{"typePOI":"Arène","title":"Rejoins les Robins des bois","uuid":3681}},{"geometry":{"coordinates":[7.108527,46.820963],"type":"Point"},"type":"Feature","properties":{"typePOI":"Arène","title":"Blocs Épars","uuid":3682}},{"geometry":{"coordinates":[7.183399,46.805372],"type":"Point"},"type":"Feature","properties":{"typePOI":"Arène","title":"Kroko","uuid":3683}},{"geometry":{"coordinates":[7.152628,46.772374],"type":"Point"},"type":"Feature","properties":{"typePOI":"Arène","title":"Cabane Des Jeunes Marly","uuid":3684}},{"geometry":{"coordinates":[7.096242,46.784599],"type":"Point"},"type":"Feature","properties":{"typePOI":"Arène","title":"Croix de la Forge","uuid":3685}},{"geometry":{"coordinates":[7.152171,46.800089],"type":"Point"},"type":"Feature","properties":{"typePOI":"Arène","title":"Chute D'un météorite","uuid":3686}},{"geometry":{"coordinates":[6.848865,46.851254],"type":"Point"},"type":"Feature","properties":{"typePOI":"Arène","title":"Château d'Estavayer-Le-Lac","uuid":3687}},{"geometry":{"coordinates":[7.28238,46.659647],"type":"Point"},"type":"Feature","properties":{"typePOI":"Arène","title":"Schwarzsee Holzkuh","uuid":3688}},{"geometry":{"coordinates":[7.015279,46.865007],"type":"Point"},"type":"Feature","properties":{"typePOI":"Arène","title":"Ecusson","uuid":3689}},{"geometry":{"coordinates":[6.96509,46.676485],"type":"Point"},"type":"Feature","properties":{"typePOI":"Arène","title":"La Croix de la Coline","uuid":3690}},{"geometry":{"coordinates":[7.136866,46.900428],"type":"Point"},"type":"Feature","properties":{"typePOI":"Arène","title":"Spielplatz Cressier","uuid":3691}},{"geometry":{"coordinates":[7.133455,46.897281],"type":"Point"},"type":"Feature","properties":{"typePOI":"Arène","title":"Croix en pierre de 1933","uuid":3692}},{"geometry":{"coordinates":[6.911134,46.687599],"type":"Point"},"type":"Feature","properties":{"typePOI":"Arène","title":"Structure métallique","uuid":3693}},{"geometry":{"coordinates":[7.127016,46.797014],"type":"Point"},"type":"Feature","properties":{"typePOI":"Arène","title":"Sculpture Faon","uuid":3694}},{"geometry":{"coordinates":[6.917921,46.525789],"type":"Point"},"type":"Feature","properties":{"typePOI":"Arène","title":"Place de jeu du bivouac","uuid":3695}},{"geometry":{"coordinates":[7.050467,46.769413],"type":"Point"},"type":"Feature","properties":{"typePOI":"Arène","title":"Agilité","uuid":3696}},{"geometry":{"coordinates":[7.109097,46.812408],"type":"Point"},"type":"Feature","properties":{"typePOI":"Arène","title":"Lunettes De Soleil","uuid":3697}},{"geometry":{"coordinates":[7.055204,46.517387],"type":"Point"},"type":"Feature","properties":{"typePOI":"Arène","title":"Fontaine Carrée","uuid":3698}},{"geometry":{"coordinates":[7.217682,46.815245],"type":"Point"},"type":"Feature","properties":{"typePOI":"Arène","title":"Kapelle St. Jakob Tafers","uuid":3699}},{"geometry":{"coordinates":[7.231163,46.844676],"type":"Point"},"type":"Feature","properties":{"typePOI":"Arène","title":"Stonewall of Berg","uuid":3700}},{"geometry":{"coordinates":[7.026829,46.724809],"type":"Point"},"type":"Feature","properties":{"typePOI":"Arène","title":"Mission 1925","uuid":3701}},{"geometry":{"coordinates":[7.172639,46.873227],"type":"Point"},"type":"Feature","properties":{"typePOI":"Arène","title":"Chapelle Petit Vivi","uuid":3702}},{"geometry":{"coordinates":[7.120467,46.817023],"type":"Point"},"type":"Feature","properties":{"typePOI":"Arène","title":"Fresque Corbeau","uuid":3703}},{"geometry":{"coordinates":[6.844854,46.848691],"type":"Point"},"type":"Feature","properties":{"typePOI":"Arène","title":"Tour De La Trahison","uuid":3704}},{"geometry":{"coordinates":[6.852234,46.845919],"type":"Point"},"type":"Feature","properties":{"typePOI":"Arène","title":"Chapelle Du Huit","uuid":3705}},{"geometry":{"coordinates":[6.914397,46.609655],"type":"Point"},"type":"Feature","properties":{"typePOI":"Arène","title":"Croix Jésus Du Crêt","uuid":3706}},{"geometry":{"coordinates":[6.861187,46.744819],"type":"Point"},"type":"Feature","properties":{"typePOI":"Arène","title":"Croix Église Surpierre I","uuid":3707}},{"geometry":{"coordinates":[7.139565,46.804434],"type":"Point"},"type":"Feature","properties":{"typePOI":"Arène","title":"Villa Beata","uuid":3708}},{"geometry":{"coordinates":[7.062344,46.621992],"type":"Point"},"type":"Feature","properties":{"typePOI":"Arène","title":"Table de Ping-Pong","uuid":3709}},{"geometry":{"coordinates":[7.073007,46.538424],"type":"Point"},"type":"Feature","properties":{"typePOI":"Arène","title":"Chapelle","uuid":3710}},{"geometry":{"coordinates":[7.056841,46.69944],"type":"Point"},"type":"Feature","properties":{"typePOI":"Arène","title":"Parcourvita 02","uuid":3711}},{"geometry":{"coordinates":[7.154468,46.782439],"type":"Point"},"type":"Feature","properties":{"typePOI":"Arène","title":"Le chateau des enfants","uuid":3712}},{"geometry":{"coordinates":[6.97844,46.542749],"type":"Point"},"type":"Feature","properties":{"typePOI":"Arène","title":"Chapelle en contrebas du Chalet du Chah","uuid":3713}},{"geometry":{"coordinates":[7.209159,46.973161],"type":"Point"},"type":"Feature","properties":{"typePOI":"Arène","title":"Bruder Klaus Kirche","uuid":3714}},{"geometry":{"coordinates":[7.103423,46.898452],"type":"Point"},"type":"Feature","properties":{"typePOI":"Arène","title":"Heulender Wolf","uuid":3715}},{"geometry":{"coordinates":[7.248237,46.855202],"type":"Point"},"type":"Feature","properties":{"typePOI":"Arène","title":"Wegkreuz Im Zentrum","uuid":3716}},{"geometry":{"coordinates":[7.273828,46.728828],"type":"Point"},"type":"Feature","properties":{"typePOI":"Arène","title":"Vitaparcours Posten 3","uuid":3717}},{"geometry":{"coordinates":[6.81437,46.8349],"type":"Point"},"type":"Feature","properties":{"typePOI":"Arène","title":"Marienmosaik und Kreuz","uuid":3718}},{"geometry":{"coordinates":[7.102365,46.56523],"type":"Point"},"type":"Feature","properties":{"typePOI":"Arène","title":"Fonfontain","uuid":3719}},{"geometry":{"coordinates":[7.095817,46.76491],"type":"Point"},"type":"Feature","properties":{"typePOI":"Arène","title":"Le Randonneur","uuid":3720}},{"geometry":{"coordinates":[6.929869,46.655751],"type":"Point"},"type":"Feature","properties":{"typePOI":"Arène","title":"Le Totem","uuid":3721}},{"geometry":{"coordinates":[7.094776,46.920185],"type":"Point"},"type":"Feature","properties":{"typePOI":"Arène","title":"Pfad des Lebens","uuid":3722}},{"geometry":{"coordinates":[7.054375,46.61607],"type":"Point"},"type":"Feature","properties":{"typePOI":"Arène","title":"Centre Culturel Ebullition","uuid":3723}},{"geometry":{"coordinates":[7.156981,46.787845],"type":"Point"},"type":"Feature","properties":{"typePOI":"Arène","title":"Bienvenue Au Sentier Botanique","uuid":3724}},{"geometry":{"coordinates":[6.873843,46.808674],"type":"Point"},"type":"Feature","properties":{"typePOI":"Arène","title":"Vesin Fontaine 1840","uuid":3725}},{"geometry":{"coordinates":[7.069687,46.951122],"type":"Point"},"type":"Feature","properties":{"typePOI":"Arène","title":"Laiterie De Lugnorre","uuid":3726}},{"geometry":{"coordinates":[7.273884,46.663005],"type":"Point"},"type":"Feature","properties":{"typePOI":"Arène","title":"Schwarzsee Muggi","uuid":3727}},{"geometry":{"coordinates":[7.09071,46.858753],"type":"Point"},"type":"Feature","properties":{"typePOI":"Arène","title":"Poste 13 - Le miel","uuid":3728}},{"geometry":{"coordinates":[7.171812,46.89264],"type":"Point"},"type":"Feature","properties":{"typePOI":"Arène","title":"Kirche St. Germain","uuid":3729}},{"geometry":{"coordinates":[7.253829,46.862962],"type":"Point"},"type":"Feature","properties":{"typePOI":"Arène","title":"Railway Station Schmitten","uuid":3730}},{"geometry":{"coordinates":[6.944595,46.725313],"type":"Point"},"type":"Feature","properties":{"typePOI":"Arène","title":"Place de picnic de la cabane de Villaz-St-Pierre","uuid":3731}},{"geometry":{"coordinates":[7.145209,46.899568],"type":"Point"},"type":"Feature","properties":{"typePOI":"Arène","title":"Office de Poste","uuid":3732}},{"geometry":{"coordinates":[7.124009,46.876486],"type":"Point"},"type":"Feature","properties":{"typePOI":"Arène","title":"Slalom","uuid":3733}},{"geometry":{"coordinates":[6.846081,46.85292],"type":"Point"},"type":"Feature","properties":{"typePOI":"Arène","title":"Fontaine Poisson Estavayer","uuid":3734}},{"geometry":{"coordinates":[6.899999,46.690816],"type":"Point"},"type":"Feature","properties":{"typePOI":"Arène","title":"Eglise De Billens","uuid":3735}},{"geometry":{"coordinates":[7.202891,46.982411],"type":"Point"},"type":"Feature","properties":{"typePOI":"Arène","title":"woody bear","uuid":3736}},{"geometry":{"coordinates":[6.918305,46.642952],"type":"Point"},"type":"Feature","properties":{"typePOI":"Arène","title":"Croix De Fer Forgé Marquant L'entrée Du Village","uuid":3737}},{"geometry":{"coordinates":[7.134009,46.726616],"type":"Point"},"type":"Feature","properties":{"typePOI":"Arène","title":"Terre d'ELLES","uuid":3738}},{"geometry":{"coordinates":[7.116559,46.789998],"type":"Point"},"type":"Feature","properties":{"typePOI":"Arène","title":"Mémorial De L'abeille","uuid":3739}},{"geometry":{"coordinates":[7.275305,46.874495],"type":"Point"},"type":"Feature","properties":{"typePOI":"Arène","title":"Kirche Wünnewil","uuid":3740}},{"geometry":{"coordinates":[7.137579,46.726938],"type":"Point"},"type":"Feature","properties":{"typePOI":"Arène","title":"Old Fountain","uuid":3741}},{"geometry":{"coordinates":[6.833575,46.749332],"type":"Point"},"type":"Feature","properties":{"typePOI":"Arène","title":"Église De Cheiry","uuid":3742}},{"geometry":{"coordinates":[6.782115,46.81834],"type":"Point"},"type":"Feature","properties":{"typePOI":"Arène","title":"Plage de Cheyres","uuid":3743}},{"geometry":{"coordinates":[7.057213,46.59684],"type":"Point"},"type":"Feature","properties":{"typePOI":"Arène","title":"Bienvenue Au Paquier","uuid":3744}},{"geometry":{"coordinates":[7.264015,46.802189],"type":"Point"},"type":"Feature","properties":{"typePOI":"Arène","title":"Vitaparcours Posten 3","uuid":3745}},{"geometry":{"coordinates":[6.868743,46.816117],"type":"Point"},"type":"Feature","properties":{"typePOI":"Arène","title":"Eglise De Montet Broye","uuid":3746}},