{"features":[{"geometry":{"coordinates":[6.839091,46.585792],"type":"Point"},"type":"Feature","properties":{"typePOI":"Pokéstop","title":"Croix De Chapelle Sur Oron (#1)","uuid":"Croix De Chapelle Sur Oron"}},{"geometry":{"coordinates":[7.152164,46.802347],"type":"Point"},"type":"Feature","properties":{"typePOI":"Pokéstop","title":"Mur De Tags (#2)","uuid":"Mur De Tags"}},{"geometry":{"coordinates":[7.158208,46.810144],"type":"Point"},"type":"Feature","properties":{"typePOI":"Pokéstop","title":"Couvent des Capucins (#3)","uuid":"Couvent des Capucins"}},{"geometry":{"coordinates":[7.055498,46.593906],"type":"Point"},"type":"Feature","properties":{"typePOI":"Pokéstop","title":"Fontaine Du Paquier (#4)","uuid":"Fontaine Du Paquier"}},{"geometry":{"coordinates":[7.065487,46.833304],"type":"Point"},"type":"Feature","properties":{"typePOI":"Pokéstop","title":"Game place Sablion (#5)","uuid":"Game place Sablion"}},{"geometry":{"coordinates":[6.838669,46.852364],"type":"Point"},"type":"Feature","properties":{"typePOI":"Pokéstop","title":"Pisci-culte du Brochet Firbourgeois (#6)","uuid":"Pisci-culte du Brochet Firbourgeois"}},{"geometry":{"coordinates":[7.276117,46.874989],"type":"Point"},"type":"Feature","properties":{"typePOI":"Pokéstop","title":"Gemeindehaus Wünnewil (#7)","uuid":"Gemeindehaus Wünnewil"}},{"geometry":{"coordinates":[7.093315,46.92028],"type":"Point"},"type":"Feature","properties":{"typePOI":"Pokéstop","title":"Vitaparcours Greng 2 (#8)","uuid":"Vitaparcours Greng 2"}},{"geometry":{"coordinates":[6.911239,46.685967],"type":"Point"},"type":"Feature","properties":{"typePOI":"Pokéstop","title":"panier de basket (#9)","uuid":"panier de basket"}},{"geometry":{"coordinates":[7.135341,46.788908],"type":"Point"},"type":"Feature","properties":{"typePOI":"Pokéstop","title":"Eaux usées (#10)","uuid":"Eaux usées"}},{"geometry":{"coordinates":[7.061692,46.618424],"type":"Point"},"type":"Feature","properties":{"typePOI":"Pokéstop","title":"Glion Main Building (#11)","uuid":"Glion Main Building"}},{"geometry":{"coordinates":[7.212933,46.980951],"type":"Point"},"type":"Feature","properties":{"typePOI":"Pokéstop","title":"Bio Suisse (#12)","uuid":"Bio Suisse"}},{"geometry":{"coordinates":[7.117658,46.798189],"type":"Point"},"type":"Feature","properties":{"typePOI":"Pokéstop","title":"Épicéa Couché (#13)","uuid":"Épicéa Couché"}},{"geometry":{"coordinates":[7.058973,46.669211],"type":"Point"},"type":"Feature","properties":{"typePOI":"Pokéstop","title":"Fontaine Du Centre (#14)","uuid":"Fontaine Du Centre"}},{"geometry":{"coordinates":[6.879939,46.783331],"type":"Point"},"type":"Feature","properties":{"typePOI":"Pokéstop","title":"Place de jeux de Ménières (#15)","uuid":"Place de jeux de Ménières"}},{"geometry":{"coordinates":[6.854178,46.844028],"type":"Point"},"type":"Feature","properties":{"typePOI":"Pokéstop","title":"Place de jeux (#16)","uuid":"Place de jeux"}},{"geometry":{"coordinates":[7.080714,46.582169],"type":"Point"},"type":"Feature","properties":{"typePOI":"Pokéstop","title":"Crest of Gruyeres Chateau (#17)","uuid":"Crest of Gruyeres Chateau"}},{"geometry":{"coordinates":[6.911166,46.688422],"type":"Point"},"type":"Feature","properties":{"typePOI":"Pokéstop","title":"Balançoires (#18)","uuid":"Balançoires"}},{"geometry":{"coordinates":[7.073281,46.538505],"type":"Point"},"type":"Feature","properties":{"typePOI":"Pokéstop","title":"Croix Penchée (#19)","uuid":"Croix Penchée"}},{"geometry":{"coordinates":[7.020339,46.876587],"type":"Point"},"type":"Feature","properties":{"typePOI":"Pokéstop","title":"Śmiejące Się Misie (#20)","uuid":"Śmiejące Się Misie"}},{"geometry":{"coordinates":[7.019371,46.617434],"type":"Point"},"type":"Feature","properties":{"typePOI":"Pokéstop","title":"Café De La Gare (#21)","uuid":"Café De La Gare"}},{"geometry":{"coordinates":[7.165422,46.787097],"type":"Point"},"type":"Feature","properties":{"typePOI":"Pokéstop","title":"Cornouiller sanguin (#22)","uuid":"Cornouiller sanguin"}},{"geometry":{"coordinates":[6.886542,46.802188],"type":"Point"},"type":"Feature","properties":{"typePOI":"Pokéstop","title":"Place de jeux du refuge (#23)","uuid":"Place de jeux du refuge"}},{"geometry":{"coordinates":[6.850024,46.621469],"type":"Point"},"type":"Feature","properties":{"typePOI":"Pokéstop","title":"Vauderens Station (#24)","uuid":"Vauderens Station"}},{"geometry":{"coordinates":[7.167682,46.806106],"type":"Point"},"type":"Feature","properties":{"typePOI":"Pokéstop","title":"St Nicolas, Évêque De Mire (#25)","uuid":"St Nicolas, Évêque De Mire"}},{"geometry":{"coordinates":[7.116973,46.827294],"type":"Point"},"type":"Feature","properties":{"typePOI":"Pokéstop","title":"Croix de Formangueires (#26)","uuid":"Croix de Formangueires"}},{"geometry":{"coordinates":[7.197378,46.978653],"type":"Point"},"type":"Feature","properties":{"typePOI":"Pokéstop","title":"Totem - Kerzers (#27)","uuid":"Totem - Kerzers"}},{"geometry":{"coordinates":[7.285914,46.741039],"type":"Point"},"type":"Feature","properties":{"typePOI":"Pokéstop","title":"Brunnen FKB (#28)","uuid":"Brunnen FKB"}},{"geometry":{"coordinates":[6.791324,46.819309],"type":"Point"},"type":"Feature","properties":{"typePOI":"Pokéstop","title":"Climbing Minions (#29)","uuid":"Climbing Minions"}},{"geometry":{"coordinates":[7.135172,46.942737],"type":"Point"},"type":"Feature","properties":{"typePOI":"Pokéstop","title":"Tobleronegraben (#30)","uuid":"Tobleronegraben"}},{"geometry":{"coordinates":[7.085778,46.539134],"type":"Point"},"type":"Feature","properties":{"typePOI":"Pokéstop","title":"Eglise de Grandvillars (#31)","uuid":"Eglise de Grandvillars"}},{"geometry":{"coordinates":[6.965799,46.791875],"type":"Point"},"type":"Feature","properties":{"typePOI":"Pokéstop","title":"Mission 1863 (#32)","uuid":"Mission 1863"}},{"geometry":{"coordinates":[7.14358,46.813088],"type":"Point"},"type":"Feature","properties":{"typePOI":"Pokéstop","title":"Tour Du Grand Torry (#33)","uuid":"Tour Du Grand Torry"}},{"geometry":{"coordinates":[6.913537,46.694059],"type":"Point"},"type":"Feature","properties":{"typePOI":"Pokéstop","title":"Vitrail Du Terminus (#34)","uuid":"Vitrail Du Terminus"}},{"geometry":{"coordinates":[7.031932,46.750618],"type":"Point"},"type":"Feature","properties":{"typePOI":"Pokéstop","title":"maison communale de Cottens (#35)","uuid":"maison communale de Cottens"}},{"geometry":{"coordinates":[7.109567,46.825199],"type":"Point"},"type":"Feature","properties":{"typePOI":"Pokéstop","title":"Place de jeu Belle Vue (#36)","uuid":"Place de jeu Belle Vue"}},{"geometry":{"coordinates":[7.156517,46.808681],"type":"Point"},"type":"Feature","properties":{"typePOI":"Pokéstop","title":"Angeloz (#37)","uuid":"Angeloz"}},{"geometry":{"coordinates":[6.787119,46.814276],"type":"Point"},"type":"Feature","properties":{"typePOI":"Pokéstop","title":"Eglise de Cheyres (#38)","uuid":"Eglise de Cheyres"}},{"geometry":{"coordinates":[7.103051,46.560658],"type":"Point"},"type":"Feature","properties":{"typePOI":"Pokéstop","title":"Fresque historique Des Vaches (#39)","uuid":"Fresque historique Des Vaches"}},{"geometry":{"coordinates":[7.234645,46.898391],"type":"Point"},"type":"Feature","properties":{"typePOI":"Pokéstop","title":"Air de jeux (#40)","uuid":"Air de jeux"}},{"geometry":{"coordinates":[7.12202,46.928164],"type":"Point"},"type":"Feature","properties":{"typePOI":"Pokéstop","title":"Twister (#41)","uuid":"Twister"}},{"geometry":{"coordinates":[7.095949,46.787729],"type":"Point"},"type":"Feature","properties":{"typePOI":"Pokéstop","title":"Fresque Au Cowboy (#42)","uuid":"Fresque Au Cowboy"}},{"geometry":{"coordinates":[7.058572,46.61734],"type":"Point"},"type":"Feature","properties":{"typePOI":"Pokéstop","title":"Jardin du Château (#43)","uuid":"Jardin du Château"}},{"geometry":{"coordinates":[7.162013,46.803672],"type":"Point"},"type":"Feature","properties":{"typePOI":"Pokéstop","title":"Cohesion (#44)","uuid":"Cohesion"}},{"geometry":{"coordinates":[7.15949,46.795645],"type":"Point"},"type":"Feature","properties":{"typePOI":"Pokéstop","title":"Die Buche mag es nicht... (#45)","uuid":"Die Buche mag es nicht..."}},{"geometry":{"coordinates":[7.286188,46.665287],"type":"Point"},"type":"Feature","properties":{"typePOI":"Pokéstop","title":"Schwarzsee Dankeskreuz (#46)","uuid":"Schwarzsee Dankeskreuz"}},{"geometry":{"coordinates":[7.117602,46.927809],"type":"Point"},"type":"Feature","properties":{"typePOI":"Pokéstop","title":"Figure on the Wall (#47)","uuid":"Figure on the Wall"}},{"geometry":{"coordinates":[7.137956,46.938814],"type":"Point"},"type":"Feature","properties":{"typePOI":"Pokéstop","title":"Löwenbrunnen Löwenberg (#48)","uuid":"Löwenbrunnen Löwenberg"}},{"geometry":{"coordinates":[7.037216,46.670617],"type":"Point"},"type":"Feature","properties":{"typePOI":"Pokéstop","title":"Le Sorcier Et L'oie (#49)","uuid":"Le Sorcier Et L'oie"}},{"geometry":{"coordinates":[7.24957,46.856267],"type":"Point"},"type":"Feature","properties":{"typePOI":"Pokéstop","title":"Kirche Schmitten (#50)","uuid":"Kirche Schmitten"}},{"geometry":{"coordinates":[7.178416,46.752201],"type":"Point"},"type":"Feature","properties":{"typePOI":"Pokéstop","title":"Vieille pompe à eau de Praroman (#51)","uuid":"Vieille pompe à eau de Praroman"}},{"geometry":{"coordinates":[7.314115,46.865985],"type":"Point"},"type":"Feature","properties":{"typePOI":"Pokéstop","title":"Dorfbrunnen (#52)","uuid":"Dorfbrunnen"}},{"geometry":{"coordinates":[7.059822,46.661874],"type":"Point"},"type":"Feature","properties":{"typePOI":"Pokéstop","title":"Ferme de l'Abbaye (#53)","uuid":"Ferme de l'Abbaye"}},{"geometry":{"coordinates":[7.168716,46.804123],"type":"Point"},"type":"Feature","properties":{"typePOI":"Pokéstop","title":"Pont de Berne à Fribourg (#54)","uuid":"Pont de Berne à Fribourg"}},{"geometry":{"coordinates":[6.812595,46.803099],"type":"Point"},"type":"Feature","properties":{"typePOI":"Pokéstop","title":"Croix de direction (#55)","uuid":"Croix de direction"}},{"geometry":{"coordinates":[7.098711,46.604003],"type":"Point"},"type":"Feature","properties":{"typePOI":"Pokéstop","title":"Gare Broc Village (#56)","uuid":"Gare Broc Village"}},{"geometry":{"coordinates":[7.048915,46.705002],"type":"Point"},"type":"Feature","properties":{"typePOI":"Pokéstop","title":"Fontaine de Vuisternens en Ogoz (#57)","uuid":"Fontaine de Vuisternens en Ogoz"}},{"geometry":{"coordinates":[6.847029,46.850114],"type":"Point"},"type":"Feature","properties":{"typePOI":"Pokéstop","title":"Rambarde sculptée (#58)","uuid":"Rambarde sculptée"}},{"geometry":{"coordinates":[7.083661,46.651217],"type":"Point"},"type":"Feature","properties":{"typePOI":"Pokéstop","title":"Chapelle Sainte Anne (#59)","uuid":"Chapelle Sainte Anne"}},{"geometry":{"coordinates":[7.12169,46.800112],"type":"Point"},"type":"Feature","properties":{"typePOI":"Pokéstop","title":"Groupe Mutuel (#60)","uuid":"Groupe Mutuel"}},{"geometry":{"coordinates":[7.117074,46.894188],"type":"Point"},"type":"Feature","properties":{"typePOI":"Pokéstop","title":"Brunnen Coussiberlé (#61)","uuid":"Brunnen Coussiberlé"}},{"geometry":{"coordinates":[6.831971,46.812041],"type":"Point"},"type":"Feature","properties":{"typePOI":"Pokéstop","title":"Eglise De Seiry (#62)","uuid":"Eglise De Seiry"}},{"geometry":{"coordinates":[6.825234,46.622825],"type":"Point"},"type":"Feature","properties":{"typePOI":"Pokéstop","title":"grotte Notre-Dame de Lourdes (#63)","uuid":"grotte Notre-Dame de Lourdes"}},{"geometry":{"coordinates":[7.178548,46.802841],"type":"Point"},"type":"Feature","properties":{"typePOI":"Pokéstop","title":"Moulin Hors Les Murs (#64)","uuid":"Moulin Hors Les Murs"}},{"geometry":{"coordinates":[7.070854,46.85179],"type":"Point"},"type":"Feature","properties":{"typePOI":"Pokéstop","title":"Croix Du Haut Village (#65)","uuid":"Croix Du Haut Village"}},{"geometry":{"coordinates":[7.162104,46.797171],"type":"Point"},"type":"Feature","properties":{"typePOI":"Pokéstop","title":"Peuplier Tremble - Sentier Botanique (#66)","uuid":"Peuplier Tremble - Sentier Botanique"}},{"geometry":{"coordinates":[7.177791,46.806626],"type":"Point"},"type":"Feature","properties":{"typePOI":"Pokéstop","title":"Rote rutsche (#67)","uuid":"Rote rutsche"}},{"geometry":{"coordinates":[6.851907,46.850616],"type":"Point"},"type":"Feature","properties":{"typePOI":"Pokéstop","title":"En famille! (#68)","uuid":"En famille!"}},{"geometry":{"coordinates":[7.122957,46.934031],"type":"Point"},"type":"Feature","properties":{"typePOI":"Pokéstop","title":"Hechtwappen (#69)","uuid":"Hechtwappen"}},{"geometry":{"coordinates":[7.09095,46.951088],"type":"Point"},"type":"Feature","properties":{"typePOI":"Pokéstop","title":"Ribambelle (#70)","uuid":"Ribambelle"}},{"geometry":{"coordinates":[6.938973,46.62954],"type":"Point"},"type":"Feature","properties":{"typePOI":"Pokéstop","title":"Cimetière (#71)","uuid":"Cimetière"}},{"geometry":{"coordinates":[7.115954,46.797097],"type":"Point"},"type":"Feature","properties":{"typePOI":"Pokéstop","title":"Panneau pedagogique les tomates (#72)","uuid":"Panneau pedagogique les tomates"}},{"geometry":{"coordinates":[6.965849,46.774566],"type":"Point"},"type":"Feature","properties":{"typePOI":"Pokéstop","title":"Croix de Torny (#73)","uuid":"Croix de Torny"}},{"geometry":{"coordinates":[7.012417,46.666488],"type":"Point"},"type":"Feature","properties":{"typePOI":"Pokéstop","title":"Le Troll Prismus (#74)","uuid":"Le Troll Prismus"}},{"geometry":{"coordinates":[6.868544,46.746015],"type":"Point"},"type":"Feature","properties":{"typePOI":"Pokéstop","title":"Chapelle De Villeneuve (#75)","uuid":"Chapelle De Villeneuve"}},{"geometry":{"coordinates":[7.122563,46.92466],"type":"Point"},"type":"Feature","properties":{"typePOI":"Pokéstop","title":"Murtenlöwe (#76)","uuid":"Murtenlöwe"}},{"geometry":{"coordinates":[7.282248,46.831825],"type":"Point"},"type":"Feature","properties":{"typePOI":"Pokéstop","title":"Kreuz Lehwil (#77)","uuid":"Kreuz Lehwil"}},{"geometry":{"coordinates":[6.818538,46.826902],"type":"Point"},"type":"Feature","properties":{"typePOI":"Pokéstop","title":"Brunnen 2006 (#78)","uuid":"Brunnen 2006"}},{"geometry":{"coordinates":[7.069888,46.770627],"type":"Point"},"type":"Feature","properties":{"typePOI":"Pokéstop","title":"Fontaine fleurie (#79)","uuid":"Fontaine fleurie"}},{"geometry":{"coordinates":[7.312755,46.891372],"type":"Point"},"type":"Feature","properties":{"typePOI":"Pokéstop","title":"Sense Playground (#80)","uuid":"Sense Playground"}},{"geometry":{"coordinates":[7.146921,46.79828],"type":"Point"},"type":"Feature","properties":{"typePOI":"Pokéstop","title":"Fresque Blue Factory (#81)","uuid":"Fresque Blue Factory"}},{"geometry":{"coordinates":[7.135298,46.798707],"type":"Point"},"type":"Feature","properties":{"typePOI":"Pokéstop","title":"Information sur la faune (#82)","uuid":"Information sur la faune"}},{"geometry":{"coordinates":[6.877616,46.658418],"type":"Point"},"type":"Feature","properties":{"typePOI":"Pokéstop","title":"Croix De La Mission (#83)","uuid":"Croix De La Mission"}},{"geometry":{"coordinates":[7.036847,46.773476],"type":"Point"},"type":"Feature","properties":{"typePOI":"Pokéstop","title":"Terrain de basket (#84)","uuid":"Terrain de basket"}},{"geometry":{"coordinates":[7.025992,46.616441],"type":"Point"},"type":"Feature","properties":{"typePOI":"Pokéstop","title":"Passerelle du Russon (#85)","uuid":"Passerelle du Russon"}},{"geometry":{"coordinates":[6.816725,46.838498],"type":"Point"},"type":"Feature","properties":{"typePOI":"Pokéstop","title":"Observatoire de L'Aulnaie Noire (#86)","uuid":"Observatoire de L'Aulnaie Noire"}},{"geometry":{"coordinates":[7.161242,46.806357],"type":"Point"},"type":"Feature","properties":{"typePOI":"Pokéstop","title":"Miss Ville de Fribourg (#87)","uuid":"Miss Ville de Fribourg"}},{"geometry":{"coordinates":[7.055644,46.615919],"type":"Point"},"type":"Feature","properties":{"typePOI":"Pokéstop","title":"Fontaine du Vieux Comté (#88)","uuid":"Fontaine du Vieux Comté"}},{"geometry":{"coordinates":[7.217411,46.816252],"type":"Point"},"type":"Feature","properties":{"typePOI":"Pokéstop","title":"Blauer Sportplatz Tafers (#89)","uuid":"Blauer Sportplatz Tafers"}},{"geometry":{"coordinates":[7.295424,46.839407],"type":"Point"},"type":"Feature","properties":{"typePOI":"Pokéstop","title":"INRI Wiler vor Holz (#90)","uuid":"INRI Wiler vor Holz"}},{"geometry":{"coordinates":[7.111598,46.7711],"type":"Point"},"type":"Feature","properties":{"typePOI":"Pokéstop","title":"Institut Agricole Grangeneuve (#91)","uuid":"Institut Agricole Grangeneuve"}},{"geometry":{"coordinates":[7.093542,46.83211],"type":"Point"},"type":"Feature","properties":{"typePOI":"Pokéstop","title":"Art Balisant (#92)","uuid":"Art Balisant"}},{"geometry":{"coordinates":[7.154862,46.800011],"type":"Point"},"type":"Feature","properties":{"typePOI":"Pokéstop","title":"Croix rouge sculptée (#93)","uuid":"Croix rouge sculptée"}},{"geometry":{"coordinates":[7.28382,46.595542],"type":"Point"},"type":"Feature","properties":{"typePOI":"Pokéstop","title":"Bärghus Musersbergli (#94)","uuid":"Bärghus Musersbergli"}},{"geometry":{"coordinates":[7.26305,46.763087],"type":"Point"},"type":"Feature","properties":{"typePOI":"Pokéstop","title":"Vitaparcours Posten 6 (#95)","uuid":"Vitaparcours Posten 6"}},{"geometry":{"coordinates":[7.286529,46.665267],"type":"Point"},"type":"Feature","properties":{"typePOI":"Pokéstop","title":"Grotte De Lourdes (#96)","uuid":"Grotte De Lourdes"}},{"geometry":{"coordinates":[6.822078,46.792454],"type":"Point"},"type":"Feature","properties":{"typePOI":"Pokéstop","title":"Chapelle de Franex (#97)","uuid":"Chapelle de Franex"}},{"geometry":{"coordinates":[6.811697,46.82811],"type":"Point"},"type":"Feature","properties":{"typePOI":"Pokéstop","title":"Bär und Elch (#98)","uuid":"Bär und Elch"}},{"geometry":{"coordinates":[7.107909,46.602138],"type":"Point"},"type":"Feature","properties":{"typePOI":"Pokéstop","title":"Brunnen Broc (#99)","uuid":"Brunnen Broc"}},{"geometry":{"coordinates":[7.041908,46.817548],"type":"Point"},"type":"Feature","properties":{"typePOI":"Pokéstop","title":"Croix du tilleul de la ferme (#100)","uuid":"Croix du tilleul de la ferme"}},{"geometry":{"coordinates":[7.044792,46.488074],"type":"Point"},"type":"Feature","properties":{"typePOI":"Pokéstop","title":"Croix Au Mur (#101)","uuid":"Croix Au Mur"}},{"geometry":{"coordinates":[6.845605,46.849689],"type":"Point"},"type":"Feature","properties":{"typePOI":"Pokéstop","title":"Chapelle de Rivaz (#102)","uuid":"Chapelle de Rivaz"}},{"geometry":{"coordinates":[7.189954,46.841201],"type":"Point"},"type":"Feature","properties":{"typePOI":"Pokéstop","title":"Spielplatz Brieglipark (#103)","uuid":"Spielplatz Brieglipark"}},{"geometry":{"coordinates":[7.100176,46.781116],"type":"Point"},"type":"Feature","properties":{"typePOI":"Pokéstop","title":"sculpture hippocampe (#104)","uuid":"sculpture hippocampe"}},{"geometry":{"coordinates":[7.084932,46.557736],"type":"Point"},"type":"Feature","properties":{"typePOI":"Pokéstop","title":"Baby Foot (#105)","uuid":"Baby Foot"}},{"geometry":{"coordinates":[6.85373,46.849019],"type":"Point"},"type":"Feature","properties":{"typePOI":"Pokéstop","title":"Éléphant De Pierre (#106)","uuid":"Éléphant De Pierre"}},{"geometry":{"coordinates":[6.923611,46.698531],"type":"Point"},"type":"Feature","properties":{"typePOI":"Pokéstop","title":"Place de jeux (#107)","uuid":"Place de jeux"}},{"geometry":{"coordinates":[7.173884,46.806337],"type":"Point"},"type":"Feature","properties":{"typePOI":"Pokéstop","title":"Mural Écureuils (#108)","uuid":"Mural Écureuils"}},{"geometry":{"coordinates":[6.946505,46.665668],"type":"Point"},"type":"Feature","properties":{"typePOI":"Pokéstop","title":"Ancienne Perceuse À Main (#109)","uuid":"Ancienne Perceuse À Main"}},{"geometry":{"coordinates":[6.834289,46.817519],"type":"Point"},"type":"Feature","properties":{"typePOI":"Pokéstop","title":"Ancienne Croix (#110)","uuid":"Ancienne Croix"}},{"geometry":{"coordinates":[7.159523,46.819354],"type":"Point"},"type":"Feature","properties":{"typePOI":"Pokéstop","title":"L'ange Messager (#111)","uuid":"L'ange Messager"}},{"geometry":{"coordinates":[7.241831,46.869224],"type":"Point"},"type":"Feature","properties":{"typePOI":"Pokéstop","title":"Jesuskreuz (#112)","uuid":"Jesuskreuz"}},{"geometry":{"coordinates":[7.1852,46.843076],"type":"Point"},"type":"Feature","properties":{"typePOI":"Pokéstop","title":"Public Streethockey Field (#113)","uuid":"Public Streethockey Field"}},{"geometry":{"coordinates":[7.261593,46.786254],"type":"Point"},"type":"Feature","properties":{"typePOI":"Pokéstop","title":"Wegkreuz Aeschlenberg (#114)","uuid":"Wegkreuz Aeschlenberg"}},{"geometry":{"coordinates":[7.082727,46.566401],"type":"Point"},"type":"Feature","properties":{"typePOI":"Pokéstop","title":"Dragon Debout Et Heureux (#115)","uuid":"Dragon Debout Et Heureux"}},{"geometry":{"coordinates":[7.21676,46.97954],"type":"Point"},"type":"Feature","properties":{"typePOI":"Pokéstop","title":"Vitaparcours #11 (#116)","uuid":"Vitaparcours #11"}},{"geometry":{"coordinates":[7.07672,46.676884],"type":"Point"},"type":"Feature","properties":{"typePOI":"Pokéstop","title":"Cloche de la chapelle de Gumefens (#117)","uuid":"Cloche de la chapelle de Gumefens"}},{"geometry":{"coordinates":[7.216069,46.812535],"type":"Point"},"type":"Feature","properties":{"typePOI":"Pokéstop","title":"Pro Natura 2010 (#118)","uuid":"Pro Natura 2010"}},{"geometry":{"coordinates":[7.150702,46.797385],"type":"Point"},"type":"Feature","properties":{"typePOI":"Pokéstop","title":"Femme vomit du Bleu (#119)","uuid":"Femme vomit du Bleu"}},{"geometry":{"coordinates":[6.815748,46.613268],"type":"Point"},"type":"Feature","properties":{"typePOI":"Pokéstop","title":"Mosaïque Ependes (#120)","uuid":"Mosaïque Ependes"}},{"geometry":{"coordinates":[7.13303,46.936009],"type":"Point"},"type":"Feature","properties":{"typePOI":"Pokéstop","title":"GLÜCKLICHER FISCH (#121)","uuid":"GLÜCKLICHER FISCH"}},{"geometry":{"coordinates":[7.001944,46.746574],"type":"Point"},"type":"Feature","properties":{"typePOI":"Pokéstop","title":"Foot et jeux (#122)","uuid":"Foot et jeux"}},{"geometry":{"coordinates":[6.818132,46.838613],"type":"Point"},"type":"Feature","properties":{"typePOI":"Pokéstop","title":"Die Biodiversität fördern (#123)","uuid":"Die Biodiversität fördern"}},{"geometry":{"coordinates":[7.084758,46.78018],"type":"Point"},"type":"Feature","properties":{"typePOI":"Pokéstop","title":"Petit koala de Matran (#124)","uuid":"Petit koala de Matran"}},{"geometry":{"coordinates":[6.996355,46.816459],"type":"Point"},"type":"Feature","properties":{"typePOI":"Pokéstop","title":"Fc Montagny (#125)","uuid":"Fc Montagny"}},{"geometry":{"coordinates":[7.157276,46.807917],"type":"Point"},"type":"Feature","properties":{"typePOI":"Pokéstop","title":"EPAI (#126)","uuid":"EPAI"}},{"geometry":{"coordinates":[7.009908,46.665656],"type":"Point"},"type":"Feature","properties":{"typePOI":"Pokéstop","title":"L'ours Debout (#127)","uuid":"L'ours Debout"}},{"geometry":{"coordinates":[7.114605,46.863255],"type":"Point"},"type":"Feature","properties":{"typePOI":"Pokéstop","title":"Poste 2 - Anatomie (#128)","uuid":"Poste 2 - Anatomie"}},{"geometry":{"coordinates":[7.175942,46.89353],"type":"Point"},"type":"Feature","properties":{"typePOI":"Pokéstop","title":"Dekobrunnen (#129)","uuid":"Dekobrunnen"}},{"geometry":{"coordinates":[7.153559,46.793205],"type":"Point"},"type":"Feature","properties":{"typePOI":"Pokéstop","title":"Ancienne maternité cantonale (#130)","uuid":"Ancienne maternité cantonale"}},{"geometry":{"coordinates":[6.792381,46.819163],"type":"Point"},"type":"Feature","properties":{"typePOI":"Pokéstop","title":"Grand Hôtel Cheyres (#131)","uuid":"Grand Hôtel Cheyres"}},{"geometry":{"coordinates":[7.112373,46.620315],"type":"Point"},"type":"Feature","properties":{"typePOI":"Pokéstop","title":"Botterens - Fontaine du Village (#132)","uuid":"Botterens - Fontaine du Village"}},{"geometry":{"coordinates":[6.9861,46.690947],"type":"Point"},"type":"Feature","properties":{"typePOI":"Pokéstop","title":"Le croix du saugy (#133)","uuid":"Le croix du saugy"}},{"geometry":{"coordinates":[7.264936,46.80077],"type":"Point"},"type":"Feature","properties":{"typePOI":"Pokéstop","title":"Vitaparcours Posten 1 (#134)","uuid":"Vitaparcours Posten 1"}},{"geometry":{"coordinates":[7.097232,46.953863],"type":"Point"},"type":"Feature","properties":{"typePOI":"Pokéstop","title":"Maison Du Vigneron (#135)","uuid":"Maison Du Vigneron"}},{"geometry":{"coordinates":[7.090549,46.750875],"type":"Point"},"type":"Feature","properties":{"typePOI":"Pokéstop","title":"Obélisque Artistique (#136)","uuid":"Obélisque Artistique"}},{"geometry":{"coordinates":[7.01607,46.866707],"type":"Point"},"type":"Feature","properties":{"typePOI":"Pokéstop","title":"Sculpture (#137)","uuid":"Sculpture"}},{"geometry":{"coordinates":[6.808096,46.826723],"type":"Point"},"type":"Feature","properties":{"typePOI":"Pokéstop","title":"Spielplatz Châbles (#138)","uuid":"Spielplatz Châbles"}},{"geometry":{"coordinates":[7.178293,46.805697],"type":"Point"},"type":"Feature","properties":{"typePOI":"Pokéstop","title":"Ping-pong (#139)","uuid":"Ping-pong"}},{"geometry":{"coordinates":[6.77634,46.81425],"type":"Point"},"type":"Feature","properties":{"typePOI":"Pokéstop","title":"Infotafel Ufererosion (#140)","uuid":"Infotafel Ufererosion"}},{"geometry":{"coordinates":[6.847525,46.509816],"type":"Point"},"type":"Feature","properties":{"typePOI":"Pokéstop","title":"Fontaine de l'EMS (#141)","uuid":"Fontaine de l'EMS"}},{"geometry":{"coordinates":[7.133851,46.871366],"type":"Point"},"type":"Feature","properties":{"typePOI":"Pokéstop","title":"Place de jeux Hausmattweg (#142)","uuid":"Place de jeux Hausmattweg"}},{"geometry":{"coordinates":[7.259742,46.7649],"type":"Point"},"type":"Feature","properties":{"typePOI":"Pokéstop","title":"Vitaparcours Posten 2 (#143)","uuid":"Vitaparcours Posten 2"}},{"geometry":{"coordinates":[7.111276,46.92702],"type":"Point"},"type":"Feature","properties":{"typePOI":"Pokéstop","title":"Grand toboggan (#144)","uuid":"Grand toboggan"}},{"geometry":{"coordinates":[7.257158,46.858572],"type":"Point"},"type":"Feature","properties":{"typePOI":"Pokéstop","title":"Tennisplätze im Gwatt (#145)","uuid":"Tennisplätze im Gwatt"}},{"geometry":{"coordinates":[7.152927,46.811569],"type":"Point"},"type":"Feature","properties":{"typePOI":"Pokéstop","title":"Parque andreia (#146)","uuid":"Parque andreia"}},{"geometry":{"coordinates":[7.251502,46.861529],"type":"Point"},"type":"Feature","properties":{"typePOI":"Pokéstop","title":"Playground (#147)","uuid":"Playground"}},{"geometry":{"coordinates":[7.116449,46.784088],"type":"Point"},"type":"Feature","properties":{"typePOI":"Pokéstop","title":"Pont de Sainte-Apolline (#148)","uuid":"Pont de Sainte-Apolline"}},{"geometry":{"coordinates":[6.928094,46.669326],"type":"Point"},"type":"Feature","properties":{"typePOI":"Pokéstop","title":"Plaque de la fromagerie (#149)","uuid":"Plaque de la fromagerie"}},{"geometry":{"coordinates":[6.943295,46.911064],"type":"Point"},"type":"Feature","properties":{"typePOI":"Pokéstop","title":"La vie secrète de l'étang (#150)","uuid":"La vie secrète de l'étang"}},{"geometry":{"coordinates":[6.921911,46.603024],"type":"Point"},"type":"Feature","properties":{"typePOI":"Pokéstop","title":"Message Écologique (#151)","uuid":"Message Écologique"}},{"geometry":{"coordinates":[6.936332,46.752099],"type":"Point"},"type":"Feature","properties":{"typePOI":"Pokéstop","title":"Le Jardin Des Sculptures (#152)","uuid":"Le Jardin Des Sculptures"}},{"geometry":{"coordinates":[7.057801,46.525286],"type":"Point"},"type":"Feature","properties":{"typePOI":"Pokéstop","title":"Eglise de Neirivue (#153)","uuid":"Eglise de Neirivue"}},{"geometry":{"coordinates":[7.187207,46.850411],"type":"Point"},"type":"Feature","properties":{"typePOI":"Pokéstop","title":"Halta Park (#154)","uuid":"Halta Park"}},{"geometry":{"coordinates":[7.049626,46.670612],"type":"Point"},"type":"Feature","properties":{"typePOI":"Pokéstop","title":"Mission 1921 (#155)","uuid":"Mission 1921"}},{"geometry":{"coordinates":[7.12156,46.923257],"type":"Point"},"type":"Feature","properties":{"typePOI":"Pokéstop","title":"Basketballplatz Weiherweg (#156)","uuid":"Basketballplatz Weiherweg"}},{"geometry":{"coordinates":[7.258871,46.864504],"type":"Point"},"type":"Feature","properties":{"typePOI":"Pokéstop","title":"Kleiner Spielplatz (#157)","uuid":"Kleiner Spielplatz"}},{"geometry":{"coordinates":[7.100788,46.602768],"type":"Point"},"type":"Feature","properties":{"typePOI":"Pokéstop","title":"fontaine de broc (#158)","uuid":"fontaine de broc"}},{"geometry":{"coordinates":[7.327219,46.889277],"type":"Point"},"type":"Feature","properties":{"typePOI":"Pokéstop","title":"Eyes of Hare Krishna (#159)","uuid":"Eyes of Hare Krishna"}},{"geometry":{"coordinates":[7.163447,46.621538],"type":"Point"},"type":"Feature","properties":{"typePOI":"Pokéstop","title":"parc de loisir charmey (#160)","uuid":"parc de loisir charmey"}},{"geometry":{"coordinates":[7.118086,46.925544],"type":"Point"},"type":"Feature","properties":{"typePOI":"Pokéstop","title":"Murten - Old Powerhouse (#161)","uuid":"Murten - Old Powerhouse"}},{"geometry":{"coordinates":[7.154789,46.800678],"type":"Point"},"type":"Feature","properties":{"typePOI":"Pokéstop","title":"Centre Fries (#162)","uuid":"Centre Fries"}},{"geometry":{"coordinates":[7.007163,46.730318],"type":"Point"},"type":"Feature","properties":{"typePOI":"Pokéstop","title":"La grotte a paul (#163)","uuid":"La grotte a paul"}},{"geometry":{"coordinates":[7.169491,46.804513],"type":"Point"},"type":"Feature","properties":{"typePOI":"Pokéstop","title":"Fontaine De La Fidélité Fribourg (#164)","uuid":"Fontaine De La Fidélité Fribourg"}},{"geometry":{"coordinates":[7.11481,46.813318],"type":"Point"},"type":"Feature","properties":{"typePOI":"Pokéstop","title":"L'Aile (#165)","uuid":"L'Aile"}},{"geometry":{"coordinates":[7.085447,46.697734],"type":"Point"},"type":"Feature","properties":{"typePOI":"Pokéstop","title":"Croix St Jessi (#166)","uuid":"Croix St Jessi"}},{"geometry":{"coordinates":[7.201974,46.787476],"type":"Point"},"type":"Feature","properties":{"typePOI":"Pokéstop","title":"Le Cheval Blanc (#167)","uuid":"Le Cheval Blanc"}},{"geometry":{"coordinates":[7.152012,46.805301],"type":"Point"},"type":"Feature","properties":{"typePOI":"Pokéstop","title":"Tour Henri (#168)","uuid":"Tour Henri"}},{"geometry":{"coordinates":[7.025457,46.721992],"type":"Point"},"type":"Feature","properties":{"typePOI":"Pokéstop","title":"Église D'Estavayer-le-Gibloux (#169)","uuid":"Église D'Estavayer-le-Gibloux"}},{"geometry":{"coordinates":[7.159027,46.821273],"type":"Point"},"type":"Feature","properties":{"typePOI":"Pokéstop","title":"Le Prieur (#170)","uuid":"Le Prieur"}},{"geometry":{"coordinates":[7.162535,46.770745],"type":"Point"},"type":"Feature","properties":{"typePOI":"Pokéstop","title":"Vache Du Vétérinaire (#171)","uuid":"Vache Du Vétérinaire"}},{"geometry":{"coordinates":[7.158518,46.809304],"type":"Point"},"type":"Feature","properties":{"typePOI":"Pokéstop","title":"Fontaine 1917 (#172)","uuid":"Fontaine 1917"}},{"geometry":{"coordinates":[6.949854,46.724017],"type":"Point"},"type":"Feature","properties":{"typePOI":"Pokéstop","title":"Notre Dames Des Graces (#173)","uuid":"Notre Dames Des Graces"}},{"geometry":{"coordinates":[7.14537,46.743166],"type":"Point"},"type":"Feature","properties":{"typePOI":"Pokéstop","title":"Stèle du Bois d'Amont (#174)","uuid":"Stèle du Bois d'Amont"}},{"geometry":{"coordinates":[6.877845,46.606776],"type":"Point"},"type":"Feature","properties":{"typePOI":"Pokéstop","title":"Croix Mission Impossible (#175)","uuid":"Croix Mission Impossible"}},{"geometry":{"coordinates":[7.215702,46.974767],"type":"Point"},"type":"Feature","properties":{"typePOI":"Pokéstop","title":"Engel aus Metall (#176)","uuid":"Engel aus Metall"}},{"geometry":{"coordinates":[7.138909,46.727048],"type":"Point"},"type":"Feature","properties":{"typePOI":"Pokéstop","title":"Théatre De l'Arbanel (#177)","uuid":"Théatre De l'Arbanel"}},{"geometry":{"coordinates":[7.15049,46.806946],"type":"Point"},"type":"Feature","properties":{"typePOI":"Pokéstop","title":"Collège Gambach (#178)","uuid":"Collège Gambach"}},{"geometry":{"coordinates":[7.033925,46.749295],"type":"Point"},"type":"Feature","properties":{"typePOI":"Pokéstop","title":"Tireurs Sportifs de Cottens (#179)","uuid":"Tireurs Sportifs de Cottens"}},{"geometry":{"coordinates":[7.179057,46.67758],"type":"Point"},"type":"Feature","properties":{"typePOI":"Pokéstop","title":"La Berra, sommet Telemix (#180)","uuid":"La Berra, sommet Telemix"}},{"geometry":{"coordinates":[7.113188,46.927274],"type":"Point"},"type":"Feature","properties":{"typePOI":"Pokéstop","title":"Metal Sculpture (#181)","uuid":"Metal Sculpture"}},{"geometry":{"coordinates":[7.153244,46.797782],"type":"Point"},"type":"Feature","properties":{"typePOI":"Pokéstop","title":"Ping-pong - Parc de Pérolles (#182)","uuid":"Ping-pong - Parc de Pérolles"}},{"geometry":{"coordinates":[7.121106,46.928615],"type":"Point"},"type":"Feature","properties":{"typePOI":"Pokéstop","title":"Beaulieupark (#183)","uuid":"Beaulieupark"}},{"geometry":{"coordinates":[7.148487,46.828216],"type":"Point"},"type":"Feature","properties":{"typePOI":"Pokéstop","title":"Colonne à Trous (#184)","uuid":"Colonne à Trous"}},{"geometry":{"coordinates":[6.806889,46.81907],"type":"Point"},"type":"Feature","properties":{"typePOI":"Pokéstop","title":"Kreuz 1956 (#185)","uuid":"Kreuz 1956"}},{"geometry":{"coordinates":[6.774889,46.813891],"type":"Point"},"type":"Feature","properties":{"typePOI":"Pokéstop","title":"Gäste aus dem Norden. (#186)","uuid":"Gäste aus dem Norden."}},{"geometry":{"coordinates":[6.918655,46.525262],"type":"Point"},"type":"Feature","properties":{"typePOI":"Pokéstop","title":"Entrée du camping « le bivouac» (#187)","uuid":"Entrée du camping « le bivouac»"}},{"geometry":{"coordinates":[7.011807,46.665772],"type":"Point"},"type":"Feature","properties":{"typePOI":"Pokéstop","title":"Le Grand Hiboux De La Forêt (#188)","uuid":"Le Grand Hiboux De La Forêt"}},{"geometry":{"coordinates":[7.158377,46.806143],"type":"Point"},"type":"Feature","properties":{"typePOI":"Pokéstop","title":"Löwenbrunnen (#189)","uuid":"Löwenbrunnen"}},{"geometry":{"coordinates":[7.059041,46.629341],"type":"Point"},"type":"Feature","properties":{"typePOI":"Pokéstop","title":"place de jeux route de Riaz (#190)","uuid":"place de jeux route de Riaz"}},{"geometry":{"coordinates":[7.083435,46.551503],"type":"Point"},"type":"Feature","properties":{"typePOI":"Pokéstop","title":"Alter Flieger (#191)","uuid":"Alter Flieger"}},{"geometry":{"coordinates":[7.253587,46.888056],"type":"Point"},"type":"Feature","properties":{"typePOI":"Pokéstop","title":"Wegkreuz Grenchen (#192)","uuid":"Wegkreuz Grenchen"}},{"geometry":{"coordinates":[6.846051,46.834072],"type":"Point"},"type":"Feature","properties":{"typePOI":"Pokéstop","title":"Fontaine de Lully (#193)","uuid":"Fontaine de Lully"}},{"geometry":{"coordinates":[6.839256,46.8521],"type":"Point"},"type":"Feature","properties":{"typePOI":"Pokéstop","title":"Houses of Cats (#194)","uuid":"Houses of Cats"}},{"geometry":{"coordinates":[7.267346,46.596709],"type":"Point"},"type":"Feature","properties":{"typePOI":"Pokéstop","title":"Geologischer Pfad Gastlosen #1 (#195)","uuid":"Geologischer Pfad Gastlosen #1"}},{"geometry":{"coordinates":[7.192379,46.905494],"type":"Point"},"type":"Feature","properties":{"typePOI":"Pokéstop","title":"Andenken Liebistorf (#196)","uuid":"Andenken Liebistorf"}},{"geometry":{"coordinates":[7.137539,46.794539],"type":"Point"},"type":"Feature","properties":{"typePOI":"Pokéstop","title":"boîte à livre (#197)","uuid":"boîte à livre"}},{"geometry":{"coordinates":[7.133321,46.94662],"type":"Point"},"type":"Feature","properties":{"typePOI":"Pokéstop","title":"Relation entre les éléments (#198)","uuid":"Relation entre les éléments"}},{"geometry":{"coordinates":[7.218917,46.815032],"type":"Point"},"type":"Feature","properties":{"typePOI":"Pokéstop","title":"Pétanque Club Tavel (#199)","uuid":"Pétanque Club Tavel"}},{"geometry":{"coordinates":[7.072353,46.883609],"type":"Point"},"type":"Feature","properties":{"typePOI":"Pokéstop","title":"Clocher De Villarepos (#200)","uuid":"Clocher De Villarepos"}},{"geometry":{"coordinates":[7.13405,46.897611],"type":"Point"},"type":"Feature","properties":{"typePOI":"Pokéstop","title":"Administration Communale Cressier (#201)","uuid":"Administration Communale Cressier"}},{"geometry":{"coordinates":[7.097042,46.953149],"type":"Point"},"type":"Feature","properties":{"typePOI":"Pokéstop","title":"Praz - Fontaine 1839 (#202)","uuid":"Praz - Fontaine 1839"}},{"geometry":{"coordinates":[7.137671,46.898193],"type":"Point"},"type":"Feature","properties":{"typePOI":"Pokéstop","title":"Alte Brunnen \/ Vielle fontaine (#203)","uuid":"Alte Brunnen \/ Vielle fontaine"}},{"geometry":{"coordinates":[7.31388,46.861363],"type":"Point"},"type":"Feature","properties":{"typePOI":"Pokéstop","title":"Grenzstein Freiburg-Bern (#204)","uuid":"Grenzstein Freiburg-Bern"}},{"geometry":{"coordinates":[7.269064,46.739042],"type":"Point"},"type":"Feature","properties":{"typePOI":"Pokéstop","title":"Sahli Brunnen (#205)","uuid":"Sahli Brunnen"}},{"geometry":{"coordinates":[7.214558,46.715404],"type":"Point"},"type":"Feature","properties":{"typePOI":"Pokéstop","title":"Joseph Tornare Kreuz (#206)","uuid":"Joseph Tornare Kreuz"}},{"geometry":{"coordinates":[6.888318,46.875653],"type":"Point"},"type":"Feature","properties":{"typePOI":"Pokéstop","title":"Croix de l'église (#207)","uuid":"Croix de l'église"}},{"geometry":{"coordinates":[7.185866,46.889095],"type":"Point"},"type":"Feature","properties":{"typePOI":"Pokéstop","title":"Station 4 (#208)","uuid":"Station 4"}},{"geometry":{"coordinates":[7.063509,46.622344],"type":"Point"},"type":"Feature","properties":{"typePOI":"Pokéstop","title":"Petite maison de Morlon (#209)","uuid":"Petite maison de Morlon"}},{"geometry":{"coordinates":[7.196698,46.95402],"type":"Point"},"type":"Feature","properties":{"typePOI":"Pokéstop","title":"Agriswil Brunnen 1863 (#210)","uuid":"Agriswil Brunnen 1863"}},{"geometry":{"coordinates":[7.054321,46.767429],"type":"Point"},"type":"Feature","properties":{"typePOI":"Pokéstop","title":"Place de jeu (#211)","uuid":"Place de jeu"}},{"geometry":{"coordinates":[7.150554,46.794525],"type":"Point"},"type":"Feature","properties":{"typePOI":"Pokéstop","title":"Kletterbaum Nikolaus von der Flüe (#212)","uuid":"Kletterbaum Nikolaus von der Flüe"}},{"geometry":{"coordinates":[7.011658,46.666936],"type":"Point"},"type":"Feature","properties":{"typePOI":"Pokéstop","title":"L'homme Qui Hurle (#213)","uuid":"L'homme Qui Hurle"}},{"geometry":{"coordinates":[6.809377,46.611122],"type":"Point"},"type":"Feature","properties":{"typePOI":"Pokéstop","title":"Abri Atomic (#214)","uuid":"Abri Atomic"}},{"geometry":{"coordinates":[6.846263,46.849595],"type":"Point"},"type":"Feature","properties":{"typePOI":"Pokéstop","title":"Raquel Rodrigo (#215)","uuid":"Raquel Rodrigo"}},{"geometry":{"coordinates":[7.165177,46.805711],"type":"Point"},"type":"Feature","properties":{"typePOI":"Pokéstop","title":"L'enseigne Du Duc Berthold (#216)","uuid":"L'enseigne Du Duc Berthold"}},{"geometry":{"coordinates":[7.101401,46.604571],"type":"Point"},"type":"Feature","properties":{"typePOI":"Pokéstop","title":"Alexandre Cailler (#217)","uuid":"Alexandre Cailler"}},{"geometry":{"coordinates":[7.096841,46.743091],"type":"Point"},"type":"Feature","properties":{"typePOI":"Pokéstop","title":"Restaurant De L'étoile (#218)","uuid":"Restaurant De L'étoile"}},{"geometry":{"coordinates":[7.267873,46.802627],"type":"Point"},"type":"Feature","properties":{"typePOI":"Pokéstop","title":"Vitaparcours Posten 12 (#219)","uuid":"Vitaparcours Posten 12"}},{"geometry":{"coordinates":[7.218433,46.816146],"type":"Point"},"type":"Feature","properties":{"typePOI":"Pokéstop","title":"Rote Rutsche Tafers (#220)","uuid":"Rote Rutsche Tafers"}},{"geometry":{"coordinates":[6.911145,46.68028],"type":"Point"},"type":"Feature","properties":{"typePOI":"Pokéstop","title":"The Lost Chapel (#221)","uuid":"The Lost Chapel"}},{"geometry":{"coordinates":[7.242355,46.884307],"type":"Point"},"type":"Feature","properties":{"typePOI":"Pokéstop","title":"Wegkreuz (#222)","uuid":"Wegkreuz"}},{"geometry":{"coordinates":[7.153472,46.799637],"type":"Point"},"type":"Feature","properties":{"typePOI":"Pokéstop","title":"Place de Jeux - Rue Hans-Geiler (#223)","uuid":"Place de Jeux - Rue Hans-Geiler"}},{"geometry":{"coordinates":[6.911371,46.686321],"type":"Point"},"type":"Feature","properties":{"typePOI":"Pokéstop","title":"Terrain de foot (#224)","uuid":"Terrain de foot"}},{"geometry":{"coordinates":[7.236259,46.815467],"type":"Point"},"type":"Feature","properties":{"typePOI":"Pokéstop","title":"Oktagon-Brunnen Tafers (#225)","uuid":"Oktagon-Brunnen Tafers"}},{"geometry":{"coordinates":[7.193492,46.972262],"type":"Point"},"type":"Feature","properties":{"typePOI":"Pokéstop","title":"Graffiti-Kunst (#226)","uuid":"Graffiti-Kunst"}},{"geometry":{"coordinates":[6.927678,46.573489],"type":"Point"},"type":"Feature","properties":{"typePOI":"Pokéstop","title":"Fontaine - décorée De Semsales (#227)","uuid":"Fontaine - décorée De Semsales"}},{"geometry":{"coordinates":[7.142399,46.899009],"type":"Point"},"type":"Feature","properties":{"typePOI":"Pokéstop","title":"Cheval De Fer (#228)","uuid":"Cheval De Fer"}},{"geometry":{"coordinates":[7.265275,46.825606],"type":"Point"},"type":"Feature","properties":{"typePOI":"Pokéstop","title":"Trinkwasser - Schutzzonen (#229)","uuid":"Trinkwasser - Schutzzonen"}},{"geometry":{"coordinates":[6.970272,46.768111],"type":"Point"},"type":"Feature","properties":{"typePOI":"Pokéstop","title":"Croix Montbellay (#230)","uuid":"Croix Montbellay"}},{"geometry":{"coordinates":[7.084175,46.583742],"type":"Point"},"type":"Feature","properties":{"typePOI":"Pokéstop","title":"Croix Forgé (#231)","uuid":"Croix Forgé"}},{"geometry":{"coordinates":[7.195754,46.714813],"type":"Point"},"type":"Feature","properties":{"typePOI":"Pokéstop","title":"Brunnen Burgerwald (#232)","uuid":"Brunnen Burgerwald"}},{"geometry":{"coordinates":[7.087486,46.682726],"type":"Point"},"type":"Feature","properties":{"typePOI":"Pokéstop","title":"Mosaic !! (#233)","uuid":"Mosaic !!"}},{"geometry":{"coordinates":[7.147088,46.75398],"type":"Point"},"type":"Feature","properties":{"typePOI":"Pokéstop","title":"Place de jeux d'Épendes (#234)","uuid":"Place de jeux d'Épendes"}},{"geometry":{"coordinates":[7.013857,46.45341],"type":"Point"},"type":"Feature","properties":{"typePOI":"Pokéstop","title":"Pierra Derrey, Fontaine (#235)","uuid":"Pierra Derrey, Fontaine"}},{"geometry":{"coordinates":[6.901743,46.527899],"type":"Point"},"type":"Feature","properties":{"typePOI":"Pokéstop","title":"Symbole De La Ville (#236)","uuid":"Symbole De La Ville"}},{"geometry":{"coordinates":[7.124344,46.924897],"type":"Point"},"type":"Feature","properties":{"typePOI":"Pokéstop","title":"Tennisplatz Murten (#237)","uuid":"Tennisplatz Murten"}},{"geometry":{"coordinates":[7.086804,46.950874],"type":"Point"},"type":"Feature","properties":{"typePOI":"Pokéstop","title":"Sentier viticole - Les vignerons du Vully (#238)","uuid":"Sentier viticole - Les vignerons du Vully"}},{"geometry":{"coordinates":[6.791731,46.815204],"type":"Point"},"type":"Feature","properties":{"typePOI":"Pokéstop","title":"Weinlehrpfad Posten 5 (#239)","uuid":"Weinlehrpfad Posten 5"}},{"geometry":{"coordinates":[7.123145,46.936237],"type":"Point"},"type":"Feature","properties":{"typePOI":"Pokéstop","title":"Expo 02 (#240)","uuid":"Expo 02"}},{"geometry":{"coordinates":[6.917867,46.696098],"type":"Point"},"type":"Feature","properties":{"typePOI":"Pokéstop","title":"Fontaine à Romont (#241)","uuid":"Fontaine à Romont"}},{"geometry":{"coordinates":[7.223399,46.576979],"type":"Point"},"type":"Feature","properties":{"typePOI":"Pokéstop","title":"Croix Du Sommet De La Hochmatt (#242)","uuid":"Croix Du Sommet De La Hochmatt"}},{"geometry":{"coordinates":[7.121412,46.926076],"type":"Point"},"type":"Feature","properties":{"typePOI":"Pokéstop","title":"Fussballplatz Pra Pury (#243)","uuid":"Fussballplatz Pra Pury"}},{"geometry":{"coordinates":[7.157944,46.818719],"type":"Point"},"type":"Feature","properties":{"typePOI":"Pokéstop","title":"Mini Chapelle (#244)","uuid":"Mini Chapelle"}},{"geometry":{"coordinates":[7.011907,46.792838],"type":"Point"},"type":"Feature","properties":{"typePOI":"Pokéstop","title":"L équilibre (#245)","uuid":"L équilibre"}},{"geometry":{"coordinates":[7.146645,46.802751],"type":"Point"},"type":"Feature","properties":{"typePOI":"Pokéstop","title":"Eglise illuminée (#246)","uuid":"Eglise illuminée"}},{"geometry":{"coordinates":[6.785248,46.812273],"type":"Point"},"type":"Feature","properties":{"typePOI":"Pokéstop","title":"Weinlehrpfad Posten 11 (#247)","uuid":"Weinlehrpfad Posten 11"}},{"geometry":{"coordinates":[7.204668,46.764436],"type":"Point"},"type":"Feature","properties":{"typePOI":"Pokéstop","title":"Parque de jeux ligia (#248)","uuid":"Parque de jeux ligia"}},{"geometry":{"coordinates":[7.175562,46.816432],"type":"Point"},"type":"Feature","properties":{"typePOI":"Pokéstop","title":"Spielplatz,Castel (#249)","uuid":"Spielplatz,Castel"}},{"geometry":{"coordinates":[7.17602,46.845737],"type":"Point"},"type":"Feature","properties":{"typePOI":"Pokéstop","title":"Fieberklee (#250)","uuid":"Fieberklee"}},{"geometry":{"coordinates":[6.963585,46.740691],"type":"Point"},"type":"Feature","properties":{"typePOI":"Pokéstop","title":"La Vache (#251)","uuid":"La Vache"}},{"geometry":{"coordinates":[7.155097,46.797306],"type":"Point"},"type":"Feature","properties":{"typePOI":"Pokéstop","title":"Fribourg - Paroisse Orthodoxe (#252)","uuid":"Fribourg - Paroisse Orthodoxe"}},{"geometry":{"coordinates":[6.912391,46.686634],"type":"Point"},"type":"Feature","properties":{"typePOI":"Pokéstop","title":"Mur de grimpe (#253)","uuid":"Mur de grimpe"}},{"geometry":{"coordinates":[7.170249,46.807373],"type":"Point"},"type":"Feature","properties":{"typePOI":"Pokéstop","title":"Chalet de la Fraternité (#254)","uuid":"Chalet de la Fraternité"}},{"geometry":{"coordinates":[7.137221,46.81957],"type":"Point"},"type":"Feature","properties":{"typePOI":"Pokéstop","title":"Fc Granges-Paccot (#255)","uuid":"Fc Granges-Paccot"}},{"geometry":{"coordinates":[7.105871,46.558918],"type":"Point"},"type":"Feature","properties":{"typePOI":"Pokéstop","title":"Sur Croix La Croix (#256)","uuid":"Sur Croix La Croix"}},{"geometry":{"coordinates":[7.001498,46.84605],"type":"Point"},"type":"Feature","properties":{"typePOI":"Pokéstop","title":"Die Grotte der heiligen Maria (#257)","uuid":"Die Grotte der heiligen Maria"}},{"geometry":{"coordinates":[7.182046,46.888943],"type":"Point"},"type":"Feature","properties":{"typePOI":"Pokéstop","title":"Station 1 (#258)","uuid":"Station 1"}},{"geometry":{"coordinates":[7.107394,46.645237],"type":"Point"},"type":"Feature","properties":{"typePOI":"Pokéstop","title":"Eglise (#259)","uuid":"Eglise"}},{"geometry":{"coordinates":[6.909443,46.687487],"type":"Point"},"type":"Feature","properties":{"typePOI":"Pokéstop","title":"place de jeux (#260)","uuid":"place de jeux"}},{"geometry":{"coordinates":[6.803884,46.811186],"type":"Point"},"type":"Feature","properties":{"typePOI":"Pokéstop","title":"Posten 9 Landwirtschaftspfad (#261)","uuid":"Posten 9 Landwirtschaftspfad"}},{"geometry":{"coordinates":[6.780875,46.817274],"type":"Point"},"type":"Feature","properties":{"typePOI":"Pokéstop","title":"Hier herrscht der Biber! (#262)","uuid":"Hier herrscht der Biber!"}},{"geometry":{"coordinates":[7.13756,46.842916],"type":"Point"},"type":"Feature","properties":{"typePOI":"Pokéstop","title":"Ancienne Gare De Pensier (#263)","uuid":"Ancienne Gare De Pensier"}},{"geometry":{"coordinates":[7.123063,46.933143],"type":"Point"},"type":"Feature","properties":{"typePOI":"Pokéstop","title":"Fontaine sous l'arbre (#264)","uuid":"Fontaine sous l'arbre"}},{"geometry":{"coordinates":[7.128911,46.738846],"type":"Point"},"type":"Feature","properties":{"typePOI":"Pokéstop","title":"La Croix Des Moulins (#265)","uuid":"La Croix Des Moulins"}},{"geometry":{"coordinates":[6.859246,46.614838],"type":"Point"},"type":"Feature","properties":{"typePOI":"Pokéstop","title":"Chapelle De Mossel (#266)","uuid":"Chapelle De Mossel"}},{"geometry":{"coordinates":[6.808795,46.825773],"type":"Point"},"type":"Feature","properties":{"typePOI":"Pokéstop","title":"Fussballplatz Châbles (#267)","uuid":"Fussballplatz Châbles"}},{"geometry":{"coordinates":[7.026978,46.672666],"type":"Point"},"type":"Feature","properties":{"typePOI":"Pokéstop","title":"Le Puis De Sorens (#268)","uuid":"Le Puis De Sorens"}},{"geometry":{"coordinates":[7.115106,46.928004],"type":"Point"},"type":"Feature","properties":{"typePOI":"Pokéstop","title":"Château Morat (#269)","uuid":"Château Morat"}},{"geometry":{"coordinates":[7.160789,46.814541],"type":"Point"},"type":"Feature","properties":{"typePOI":"Pokéstop","title":"Haute-Croix (#270)","uuid":"Haute-Croix"}},{"geometry":{"coordinates":[7.221223,46.809698],"type":"Point"},"type":"Feature","properties":{"typePOI":"Pokéstop","title":"Wegkreuz Juch (#271)","uuid":"Wegkreuz Juch"}},{"geometry":{"coordinates":[6.834824,46.749894],"type":"Point"},"type":"Feature","properties":{"typePOI":"Pokéstop","title":"Un grenier historique (#272)","uuid":"Un grenier historique"}},{"geometry":{"coordinates":[7.113477,46.766597],"type":"Point"},"type":"Feature","properties":{"typePOI":"Pokéstop","title":"Cuve Grangeneuve (#273)","uuid":"Cuve Grangeneuve"}},{"geometry":{"coordinates":[7.262103,46.825411],"type":"Point"},"type":"Feature","properties":{"typePOI":"Pokéstop","title":"Football Playground Burgbühl (#274)","uuid":"Football Playground Burgbühl"}},{"geometry":{"coordinates":[7.099565,46.920161],"type":"Point"},"type":"Feature","properties":{"typePOI":"Pokéstop","title":"Waldlehrpfad (#275)","uuid":"Waldlehrpfad"}},{"geometry":{"coordinates":[7.096335,46.829666],"type":"Point"},"type":"Feature","properties":{"typePOI":"Pokéstop","title":"Zurich parcoursvita 12 (#276)","uuid":"Zurich parcoursvita 12"}},{"geometry":{"coordinates":[7.173636,46.91345],"type":"Point"},"type":"Feature","properties":{"typePOI":"Pokéstop","title":"Wer springt weiter? (#277)","uuid":"Wer springt weiter?"}},{"geometry":{"coordinates":[6.886863,46.813055],"type":"Point"},"type":"Feature","properties":{"typePOI":"Pokéstop","title":"Cugy 700 years stone (#278)","uuid":"Cugy 700 years stone"}},{"geometry":{"coordinates":[7.152266,46.795252],"type":"Point"},"type":"Feature","properties":{"typePOI":"Pokéstop","title":"La Tour Soprano (#279)","uuid":"La Tour Soprano"}},{"geometry":{"coordinates":[7.191919,46.847677],"type":"Point"},"type":"Feature","properties":{"typePOI":"Pokéstop","title":"Jesuskreuz (#280)","uuid":"Jesuskreuz"}},{"geometry":{"coordinates":[7.146082,46.779308],"type":"Point"},"type":"Feature","properties":{"typePOI":"Pokéstop","title":"Chapelle De Marly (#281)","uuid":"Chapelle De Marly"}},{"geometry":{"coordinates":[7.160436,46.793421],"type":"Point"},"type":"Feature","properties":{"typePOI":"Pokéstop","title":"La Bibliothèque (#282)","uuid":"La Bibliothèque"}},{"geometry":{"coordinates":[6.983203,46.678771],"type":"Point"},"type":"Feature","properties":{"typePOI":"Pokéstop","title":"Reposoir Notre Dame (#283)","uuid":"Reposoir Notre Dame"}},{"geometry":{"coordinates":[7.153035,46.799073],"type":"Point"},"type":"Feature","properties":{"typePOI":"Pokéstop","title":"Vogt Fribourg-Freiburg (#284)","uuid":"Vogt Fribourg-Freiburg"}},{"geometry":{"coordinates":[7.148049,46.807818],"type":"Point"},"type":"Feature","properties":{"typePOI":"Pokéstop","title":"Chateau (#285)","uuid":"Chateau"}},{"geometry":{"coordinates":[7.175735,46.643252],"type":"Point"},"type":"Feature","properties":{"typePOI":"Pokéstop","title":"Mental Cross (#286)","uuid":"Mental Cross"}},{"geometry":{"coordinates":[7.216332,46.816134],"type":"Point"},"type":"Feature","properties":{"typePOI":"Pokéstop","title":"Fussballplatz Tafers (#287)","uuid":"Fussballplatz Tafers"}},{"geometry":{"coordinates":[7.172015,46.745324],"type":"Point"},"type":"Feature","properties":{"typePOI":"Pokéstop","title":"La Poste, Le Mouret (#288)","uuid":"La Poste, Le Mouret"}},{"geometry":{"coordinates":[6.904489,46.710124],"type":"Point"},"type":"Feature","properties":{"typePOI":"Pokéstop","title":"Fatima (#289)","uuid":"Fatima"}},{"geometry":{"coordinates":[6.838848,46.848277],"type":"Point"},"type":"Feature","properties":{"typePOI":"Pokéstop","title":"Fontaine des Lacustres (#290)","uuid":"Fontaine des Lacustres"}},{"geometry":{"coordinates":[7.212799,46.998133],"type":"Point"},"type":"Feature","properties":{"typePOI":"Pokéstop","title":"Alter Wegstein (#291)","uuid":"Alter Wegstein"}},{"geometry":{"coordinates":[6.786443,46.818967],"type":"Point"},"type":"Feature","properties":{"typePOI":"Pokéstop","title":"Karusel chez Anny (#292)","uuid":"Karusel chez Anny"}},{"geometry":{"coordinates":[7.061587,46.611952],"type":"Point"},"type":"Feature","properties":{"typePOI":"Pokéstop","title":"Plaque comemorative en l\u2019honneur du 20\u2019000eme habitant de la ville de Bulle en Mars 2013 (#293)","uuid":"Plaque comemorative en l\u2019honneur du 20\u2019000eme habitant de la ville de Bulle en Mars 2013"}},{"geometry":{"coordinates":[6.907003,46.671149],"type":"Point"},"type":"Feature","properties":{"typePOI":"Pokéstop","title":"Croix Notre Dame Du Bois (#294)","uuid":"Croix Notre Dame Du Bois"}},{"geometry":{"coordinates":[7.127119,46.812261],"type":"Point"},"type":"Feature","properties":{"typePOI":"Pokéstop","title":"Château d'Affry (#295)","uuid":"Château d'Affry"}},{"geometry":{"coordinates":[7.282054,46.659938],"type":"Point"},"type":"Feature","properties":{"typePOI":"Pokéstop","title":"Schwarze Kuh (#296)","uuid":"Schwarze Kuh"}},{"geometry":{"coordinates":[7.264228,46.576395],"type":"Point"},"type":"Feature","properties":{"typePOI":"Pokéstop","title":"Gurutzea 1945-1995 50.Urteurrena (#297)","uuid":"Gurutzea 1945-1995 50.Urteurrena"}},{"geometry":{"coordinates":[7.087407,46.54191],"type":"Point"},"type":"Feature","properties":{"typePOI":"Pokéstop","title":"Compas Marteau Équerre (#298)","uuid":"Compas Marteau Équerre"}},{"geometry":{"coordinates":[7.092378,46.570186],"type":"Point"},"type":"Feature","properties":{"typePOI":"Pokéstop","title":"Zone Fourmilière (#299)","uuid":"Zone Fourmilière"}},{"geometry":{"coordinates":[6.956694,46.719837],"type":"Point"},"type":"Feature","properties":{"typePOI":"Pokéstop","title":"Eglise Villaz-Saint-Pierre (#300)","uuid":"Eglise Villaz-Saint-Pierre"}},{"geometry":{"coordinates":[7.12323,46.692178],"type":"Point"},"type":"Feature","properties":{"typePOI":"Pokéstop","title":"Dernière glaciation (#301)","uuid":"Dernière glaciation"}},{"geometry":{"coordinates":[6.848071,46.849994],"type":"Point"},"type":"Feature","properties":{"typePOI":"Pokéstop","title":"Cloud Rider (#302)","uuid":"Cloud Rider"}},{"geometry":{"coordinates":[7.052726,46.70922],"type":"Point"},"type":"Feature","properties":{"typePOI":"Pokéstop","title":"Croix du bois d Ogoz (#303)","uuid":"Croix du bois d Ogoz"}},{"geometry":{"coordinates":[7.124033,46.778912],"type":"Point"},"type":"Feature","properties":{"typePOI":"Pokéstop","title":"Navigation sur la Sarine (#304)","uuid":"Navigation sur la Sarine"}},{"geometry":{"coordinates":[7.063602,46.625683],"type":"Point"},"type":"Feature","properties":{"typePOI":"Pokéstop","title":"Espace pétanque Pré du Lioba (#305)","uuid":"Espace pétanque Pré du Lioba"}},{"geometry":{"coordinates":[7.059006,46.625694],"type":"Point"},"type":"Feature","properties":{"typePOI":"Pokéstop","title":"Entrée Du Paradis (#306)","uuid":"Entrée Du Paradis"}},{"geometry":{"coordinates":[7.097687,46.774912],"type":"Point"},"type":"Feature","properties":{"typePOI":"Pokéstop","title":"Chapelle (#307)","uuid":"Chapelle"}},{"geometry":{"coordinates":[7.10688,46.607082],"type":"Point"},"type":"Feature","properties":{"typePOI":"Pokéstop","title":"Chocolate Castle (#308)","uuid":"Chocolate Castle"}},{"geometry":{"coordinates":[7.097916,46.744147],"type":"Point"},"type":"Feature","properties":{"typePOI":"Pokéstop","title":"Eglise De Corpataux (#309)","uuid":"Eglise De Corpataux"}},{"geometry":{"coordinates":[7.118455,46.927295],"type":"Point"},"type":"Feature","properties":{"typePOI":"Pokéstop","title":"Église catholique de Morat (#310)","uuid":"Église catholique de Morat"}},{"geometry":{"coordinates":[7.319075,46.652515],"type":"Point"},"type":"Feature","properties":{"typePOI":"Pokéstop","title":"Gipfelkreuz Kaiseregg (#311)","uuid":"Gipfelkreuz Kaiseregg"}},{"geometry":{"coordinates":[6.90534,46.839831],"type":"Point"},"type":"Feature","properties":{"typePOI":"Pokéstop","title":"Vielle Église Perdue (#312)","uuid":"Vielle Église Perdue"}},{"geometry":{"coordinates":[7.097413,46.956516],"type":"Point"},"type":"Feature","properties":{"typePOI":"Pokéstop","title":"Vully sentier botanique - section la vigne (#313)","uuid":"Vully sentier botanique - section la vigne"}},{"geometry":{"coordinates":[7.132104,46.856271],"type":"Point"},"type":"Feature","properties":{"typePOI":"Pokéstop","title":"Notre Dame Des Troncs (#314)","uuid":"Notre Dame Des Troncs"}},{"geometry":{"coordinates":[7.070207,46.788004],"type":"Point"},"type":"Feature","properties":{"typePOI":"Pokéstop","title":"Mission 1930 (#315)","uuid":"Mission 1930"}},{"geometry":{"coordinates":[7.067084,46.852806],"type":"Point"},"type":"Feature","properties":{"typePOI":"Pokéstop","title":"Granges 1757 (#316)","uuid":"Granges 1757"}},{"geometry":{"coordinates":[7.158633,46.800112],"type":"Point"},"type":"Feature","properties":{"typePOI":"Pokéstop","title":"Abbaye De La Maigrauge (#317)","uuid":"Abbaye De La Maigrauge"}},{"geometry":{"coordinates":[7.166801,46.803939],"type":"Point"},"type":"Feature","properties":{"typePOI":"Pokéstop","title":"Fontaine De La Samaritaine (#318)","uuid":"Fontaine De La Samaritaine"}},{"geometry":{"coordinates":[7.091174,46.920925],"type":"Point"},"type":"Feature","properties":{"typePOI":"Pokéstop","title":"Vitaparcours Greng 4 (#319)","uuid":"Vitaparcours Greng 4"}},{"geometry":{"coordinates":[7.296337,46.686801],"type":"Point"},"type":"Feature","properties":{"typePOI":"Pokéstop","title":"Welcome To Black Lake (#320)","uuid":"Welcome To Black Lake"}},{"geometry":{"coordinates":[7.097272,46.785418],"type":"Point"},"type":"Feature","properties":{"typePOI":"Pokéstop","title":"Administration Communale (#321)","uuid":"Administration Communale"}},{"geometry":{"coordinates":[7.211071,46.814653],"type":"Point"},"type":"Feature","properties":{"typePOI":"Pokéstop","title":"Waterlilly Fountain (#322)","uuid":"Waterlilly Fountain"}},{"geometry":{"coordinates":[6.908472,46.52317],"type":"Point"},"type":"Feature","properties":{"typePOI":"Pokéstop","title":"Fontaine 1970 (#323)","uuid":"Fontaine 1970"}},{"geometry":{"coordinates":[6.903582,46.527677],"type":"Point"},"type":"Feature","properties":{"typePOI":"Pokéstop","title":"Veveyse de Châtel, passerelle (#324)","uuid":"Veveyse de Châtel, passerelle"}},{"geometry":{"coordinates":[7.173458,46.852882],"type":"Point"},"type":"Feature","properties":{"typePOI":"Pokéstop","title":"Kapelle von Ottisberg (#325)","uuid":"Kapelle von Ottisberg"}},{"geometry":{"coordinates":[7.139314,46.898113],"type":"Point"},"type":"Feature","properties":{"typePOI":"Pokéstop","title":"Dopplett Brunnen \/ Double fontaine (#326)","uuid":"Dopplett Brunnen \/ Double fontaine"}},{"geometry":{"coordinates":[7.295896,46.596092],"type":"Point"},"type":"Feature","properties":{"typePOI":"Pokéstop","title":"Bergwanderweg Musersbergli (#327)","uuid":"Bergwanderweg Musersbergli"}},{"geometry":{"coordinates":[7.088226,46.534637],"type":"Point"},"type":"Feature","properties":{"typePOI":"Pokéstop","title":"Fontaine en pierre (#328)","uuid":"Fontaine en pierre"}},{"geometry":{"coordinates":[7.165068,46.619146],"type":"Point"},"type":"Feature","properties":{"typePOI":"Pokéstop","title":"Charmey, La Croix De Fer (#329)","uuid":"Charmey, La Croix De Fer"}},{"geometry":{"coordinates":[6.976736,46.737663],"type":"Point"},"type":"Feature","properties":{"typePOI":"Pokéstop","title":"Croix (#330)","uuid":"Croix"}},{"geometry":{"coordinates":[7.15061,46.80452],"type":"Point"},"type":"Feature","properties":{"typePOI":"Pokéstop","title":"Space Invader (#331)","uuid":"Space Invader"}},{"geometry":{"coordinates":[7.089321,46.54425],"type":"Point"},"type":"Feature","properties":{"typePOI":"Pokéstop","title":"Croix De 1874 (#332)","uuid":"Croix De 1874"}},{"geometry":{"coordinates":[7.114602,46.796586],"type":"Point"},"type":"Feature","properties":{"typePOI":"Pokéstop","title":"Chacun son écorce (#333)","uuid":"Chacun son écorce"}},{"geometry":{"coordinates":[7.139192,46.728593],"type":"Point"},"type":"Feature","properties":{"typePOI":"Pokéstop","title":"Orgue (#334)","uuid":"Orgue"}},{"geometry":{"coordinates":[7.274773,46.803939],"type":"Point"},"type":"Feature","properties":{"typePOI":"Pokéstop","title":"Pilgerweg Posten X (#335)","uuid":"Pilgerweg Posten X"}},{"geometry":{"coordinates":[7.171306,46.802953],"type":"Point"},"type":"Feature","properties":{"typePOI":"Pokéstop","title":"Dürrenbühl (#336)","uuid":"Dürrenbühl"}},{"geometry":{"coordinates":[7.038876,46.762083],"type":"Point"},"type":"Feature","properties":{"typePOI":"Pokéstop","title":"Picknick Platz mit Marienstatue (#337)","uuid":"Picknick Platz mit Marienstatue"}},{"geometry":{"coordinates":[7.013053,46.867242],"type":"Point"},"type":"Feature","properties":{"typePOI":"Pokéstop","title":"Minifontaine (#338)","uuid":"Minifontaine"}},{"geometry":{"coordinates":[7.095575,46.835619],"type":"Point"},"type":"Feature","properties":{"typePOI":"Pokéstop","title":"Aire De Repos (#339)","uuid":"Aire De Repos"}},{"geometry":{"coordinates":[6.969834,46.918772],"type":"Point"},"type":"Feature","properties":{"typePOI":"Pokéstop","title":"Place De Jeu Dans Les Bois (#340)","uuid":"Place De Jeu Dans Les Bois"}},{"geometry":{"coordinates":[7.172847,46.810599],"type":"Point"},"type":"Feature","properties":{"typePOI":"Pokéstop","title":"La Poste - Filiale du Schoenberg (#341)","uuid":"La Poste - Filiale du Schoenberg"}},{"geometry":{"coordinates":[7.26226,46.83303],"type":"Point"},"type":"Feature","properties":{"typePOI":"Pokéstop","title":"Kornspeicher Menzishus (#342)","uuid":"Kornspeicher Menzishus"}},{"geometry":{"coordinates":[6.965812,46.770737],"type":"Point"},"type":"Feature","properties":{"typePOI":"Pokéstop","title":"Croix des Ages (#343)","uuid":"Croix des Ages"}},{"geometry":{"coordinates":[7.180012,46.801114],"type":"Point"},"type":"Feature","properties":{"typePOI":"Pokéstop","title":"Helsana Trail (#344)","uuid":"Helsana Trail"}},{"geometry":{"coordinates":[7.195199,46.974937],"type":"Point"},"type":"Feature","properties":{"typePOI":"Pokéstop","title":"Steinbrunnen Kerzers (#345)","uuid":"Steinbrunnen Kerzers"}},{"geometry":{"coordinates":[7.153042,46.802405],"type":"Point"},"type":"Feature","properties":{"typePOI":"Pokéstop","title":"Chez Bach et Buck (#346)","uuid":"Chez Bach et Buck"}},{"geometry":{"coordinates":[7.089404,46.537298],"type":"Point"},"type":"Feature","properties":{"typePOI":"Pokéstop","title":"Petite croix en fer (#347)","uuid":"Petite croix en fer"}},{"geometry":{"coordinates":[7.122794,46.835104],"type":"Point"},"type":"Feature","properties":{"typePOI":"Pokéstop","title":"Le Cheval de La Corbaz (#348)","uuid":"Le Cheval de La Corbaz"}},{"geometry":{"coordinates":[7.071248,46.837575],"type":"Point"},"type":"Feature","properties":{"typePOI":"Pokéstop","title":"Tennis Grolley (#349)","uuid":"Tennis Grolley"}},{"geometry":{"coordinates":[7.237561,46.850677],"type":"Point"},"type":"Feature","properties":{"typePOI":"Pokéstop","title":"Berg Kapelle (#350)","uuid":"Berg Kapelle"}},{"geometry":{"coordinates":[7.223211,46.875381],"type":"Point"},"type":"Feature","properties":{"typePOI":"Pokéstop","title":"Herrschaftshaus (#351)","uuid":"Herrschaftshaus"}},{"geometry":{"coordinates":[7.092357,46.83403],"type":"Point"},"type":"Feature","properties":{"typePOI":"Pokéstop","title":"Zurich parcoursvita 1 (#352)","uuid":"Zurich parcoursvita 1"}},{"geometry":{"coordinates":[7.168512,46.836177],"type":"Point"},"type":"Feature","properties":{"typePOI":"Pokéstop","title":"Totem (#353)","uuid":"Totem"}},{"geometry":{"coordinates":[7.057415,46.617433],"type":"Point"},"type":"Feature","properties":{"typePOI":"Pokéstop","title":"Horloge Des Glaces (#354)","uuid":"Horloge Des Glaces"}},{"geometry":{"coordinates":[7.1404,46.793682],"type":"Point"},"type":"Feature","properties":{"typePOI":"Pokéstop","title":"Pré-Henry Game Place (#355)","uuid":"Pré-Henry Game Place"}},{"geometry":{"coordinates":[7.246773,46.85441],"type":"Point"},"type":"Feature","properties":{"typePOI":"Pokéstop","title":"Schmied bei der Arbeit (#356)","uuid":"Schmied bei der Arbeit"}},{"geometry":{"coordinates":[7.116786,46.927376],"type":"Point"},"type":"Feature","properties":{"typePOI":"Pokéstop","title":"Murten Dungeon (#357)","uuid":"Murten Dungeon"}},{"geometry":{"coordinates":[7.120914,46.789566],"type":"Point"},"type":"Feature","properties":{"typePOI":"Pokéstop","title":"Statue de Canard (#358)","uuid":"Statue de Canard"}},{"geometry":{"coordinates":[7.16175,46.620156],"type":"Point"},"type":"Feature","properties":{"typePOI":"Pokéstop","title":"aire de jeux Charmey (#359)","uuid":"aire de jeux Charmey"}},{"geometry":{"coordinates":[6.811834,46.644893],"type":"Point"},"type":"Feature","properties":{"typePOI":"Pokéstop","title":"DUCK OF MONTET (#360)","uuid":"DUCK OF MONTET"}},{"geometry":{"coordinates":[6.847687,46.847159],"type":"Point"},"type":"Feature","properties":{"typePOI":"Pokéstop","title":"Couvent du Sacré Coeur (#361)","uuid":"Couvent du Sacré Coeur"}},{"geometry":{"coordinates":[7.274193,46.836433],"type":"Point"},"type":"Feature","properties":{"typePOI":"Pokéstop","title":"Inri Niedermuhren (#362)","uuid":"Inri Niedermuhren"}},{"geometry":{"coordinates":[6.913497,46.789677],"type":"Point"},"type":"Feature","properties":{"typePOI":"Pokéstop","title":"Fontaine du Christ (#363)","uuid":"Fontaine du Christ"}},{"geometry":{"coordinates":[6.817292,46.823905],"type":"Point"},"type":"Feature","properties":{"typePOI":"Pokéstop","title":"Calvaire Châbles (#364)","uuid":"Calvaire Châbles"}},{"geometry":{"coordinates":[6.917653,46.692119],"type":"Point"},"type":"Feature","properties":{"typePOI":"Pokéstop","title":"Gravure La Femme Triste (#365)","uuid":"Gravure La Femme Triste"}},{"geometry":{"coordinates":[7.312428,46.890778],"type":"Point"},"type":"Feature","properties":{"typePOI":"Pokéstop","title":"Clubhaus Fc Wünnewil - Flamatt (#366)","uuid":"Clubhaus Fc Wünnewil - Flamatt"}},{"geometry":{"coordinates":[7.152782,46.79676],"type":"Point"},"type":"Feature","properties":{"typePOI":"Pokéstop","title":"Rababou (#367)","uuid":"Rababou"}},{"geometry":{"coordinates":[7.158754,46.807037],"type":"Point"},"type":"Feature","properties":{"typePOI":"Pokéstop","title":"Halle De Gym Et Piscine St-Michel (#368)","uuid":"Halle De Gym Et Piscine St-Michel"}},{"geometry":{"coordinates":[6.897608,46.651652],"type":"Point"},"type":"Feature","properties":{"typePOI":"Pokéstop","title":"Chapelle De Chavanne Les Forts (#369)","uuid":"Chapelle De Chavanne Les Forts"}},{"geometry":{"coordinates":[7.103107,46.959726],"type":"Point"},"type":"Feature","properties":{"typePOI":"Pokéstop","title":"Rebbergbrunnen - Mont Vully (#370)","uuid":"Rebbergbrunnen - Mont Vully"}},{"geometry":{"coordinates":[7.278628,46.659932],"type":"Point"},"type":"Feature","properties":{"typePOI":"Pokéstop","title":"Schwarzsee Schlangenbeschwörung (#371)","uuid":"Schwarzsee Schlangenbeschwörung"}},{"geometry":{"coordinates":[7.155838,46.807365],"type":"Point"},"type":"Feature","properties":{"typePOI":"Pokéstop","title":"Restaurant Marcello (#372)","uuid":"Restaurant Marcello"}},{"geometry":{"coordinates":[6.955757,46.719211],"type":"Point"},"type":"Feature","properties":{"typePOI":"Pokéstop","title":"place de jeux du village (#373)","uuid":"place de jeux du village"}},{"geometry":{"coordinates":[7.154731,46.80358],"type":"Point"},"type":"Feature","properties":{"typePOI":"Pokéstop","title":"Bowling (#374)","uuid":"Bowling"}},{"geometry":{"coordinates":[7.260596,46.824299],"type":"Point"},"type":"Feature","properties":{"typePOI":"Pokéstop","title":"Kreuz der Versöhnung (#375)","uuid":"Kreuz der Versöhnung"}},{"geometry":{"coordinates":[7.166853,46.800882],"type":"Point"},"type":"Feature","properties":{"typePOI":"Pokéstop","title":"Impass De Lorette (#376)","uuid":"Impass De Lorette"}},{"geometry":{"coordinates":[7.158341,46.803402],"type":"Point"},"type":"Feature","properties":{"typePOI":"Pokéstop","title":"Space Invader Du Funiculaire (#377)","uuid":"Space Invader Du Funiculaire"}},{"geometry":{"coordinates":[7.283918,46.610181],"type":"Point"},"type":"Feature","properties":{"typePOI":"Pokéstop","title":"Wasserrad (#378)","uuid":"Wasserrad"}},{"geometry":{"coordinates":[7.283067,46.595027],"type":"Point"},"type":"Feature","properties":{"typePOI":"Pokéstop","title":"plan charpenté (#379)","uuid":"plan charpenté"}},{"geometry":{"coordinates":[7.17828,46.746265],"type":"Point"},"type":"Feature","properties":{"typePOI":"Pokéstop","title":"Terrain de foot de la haute-sarine (#380)","uuid":"Terrain de foot de la haute-sarine"}},{"geometry":{"coordinates":[7.084536,46.588868],"type":"Point"},"type":"Feature","properties":{"typePOI":"Pokéstop","title":"Place Of Game (#381)","uuid":"Place Of Game"}},{"geometry":{"coordinates":[7.254726,46.82601],"type":"Point"},"type":"Feature","properties":{"typePOI":"Pokéstop","title":"Horied Monolith (#382)","uuid":"Horied Monolith"}},{"geometry":{"coordinates":[7.226161,46.841172],"type":"Point"},"type":"Feature","properties":{"typePOI":"Pokéstop","title":"Wasserspiel (#383)","uuid":"Wasserspiel"}},{"geometry":{"coordinates":[7.086198,46.864529],"type":"Point"},"type":"Feature","properties":{"typePOI":"Pokéstop","title":"Fontaine A Eau Plus Derrière Œuvre De Hafis Bertschinger Intitulé NOYAUX De 1970 (#384)","uuid":"Fontaine A Eau Plus Derrière Œuvre De Hafis Bertschinger Intitulé NOYAUX De 1970"}},{"geometry":{"coordinates":[7.127034,46.911741],"type":"Point"},"type":"Feature","properties":{"typePOI":"Pokéstop","title":"Schlossteich (#385)","uuid":"Schlossteich"}},{"geometry":{"coordinates":[7.232251,46.899487],"type":"Point"},"type":"Feature","properties":{"typePOI":"Pokéstop","title":"Spielplatz in der Nachbarschaft (#386)","uuid":"Spielplatz in der Nachbarschaft"}},{"geometry":{"coordinates":[7.115586,46.736215],"type":"Point"},"type":"Feature","properties":{"typePOI":"Pokéstop","title":"Eglise Vers-Saint-Pierre (#387)","uuid":"Eglise Vers-Saint-Pierre"}},{"geometry":{"coordinates":[6.895983,46.527618],"type":"Point"},"type":"Feature","properties":{"typePOI":"Pokéstop","title":"Gare de Châtel-st-Denis (#388)","uuid":"Gare de Châtel-st-Denis"}},{"geometry":{"coordinates":[7.085358,46.587816],"type":"Point"},"type":"Feature","properties":{"typePOI":"Pokéstop","title":"Belle Fontaine En Pierre (#389)","uuid":"Belle Fontaine En Pierre"}},{"geometry":{"coordinates":[7.051347,46.767406],"type":"Point"},"type":"Feature","properties":{"typePOI":"Pokéstop","title":"Poutrelles d'équilibre (#390)","uuid":"Poutrelles d'équilibre"}},{"geometry":{"coordinates":[7.255539,46.822547],"type":"Point"},"type":"Feature","properties":{"typePOI":"Pokéstop","title":"Wegkreuz Grubenacker (#391)","uuid":"Wegkreuz Grubenacker"}},{"geometry":{"coordinates":[7.092226,46.919643],"type":"Point"},"type":"Feature","properties":{"typePOI":"Pokéstop","title":"Lieber Gott und die Liebe (#392)","uuid":"Lieber Gott und die Liebe"}},{"geometry":{"coordinates":[6.821929,46.797973],"type":"Point"},"type":"Feature","properties":{"typePOI":"Pokéstop","title":"tour de La Moliere (#393)","uuid":"tour de La Moliere"}},{"geometry":{"coordinates":[7.155705,46.796189],"type":"Point"},"type":"Feature","properties":{"typePOI":"Pokéstop","title":"Mosaic Regina Mundi (#394)","uuid":"Mosaic Regina Mundi"}},{"geometry":{"coordinates":[7.119536,46.864319],"type":"Point"},"type":"Feature","properties":{"typePOI":"Pokéstop","title":"Le Chemin des abeilles - Départ (#395)","uuid":"Le Chemin des abeilles - Départ"}},{"geometry":{"coordinates":[7.253848,46.863984],"type":"Point"},"type":"Feature","properties":{"typePOI":"Pokéstop","title":"Spielplatz Caroline (#396)","uuid":"Spielplatz Caroline"}},{"geometry":{"coordinates":[7.157052,46.818645],"type":"Point"},"type":"Feature","properties":{"typePOI":"Pokéstop","title":"Cimetière Fribourg (#397)","uuid":"Cimetière Fribourg"}},{"geometry":{"coordinates":[6.979765,46.623426],"type":"Point"},"type":"Feature","properties":{"typePOI":"Pokéstop","title":"Place De Jeu Du Terrain De Foot (#398)","uuid":"Place De Jeu Du Terrain De Foot"}},{"geometry":{"coordinates":[7.297018,46.790382],"type":"Point"},"type":"Feature","properties":{"typePOI":"Pokéstop","title":"Vogelkirsche (#399)","uuid":"Vogelkirsche"}},{"geometry":{"coordinates":[6.848925,46.855289],"type":"Point"},"type":"Feature","properties":{"typePOI":"Pokéstop","title":"Réserves naturelles de Chevroux (#400)","uuid":"Réserves naturelles de Chevroux"}},{"geometry":{"coordinates":[7.254316,46.858886],"type":"Point"},"type":"Feature","properties":{"typePOI":"Pokéstop","title":"Vitaparcour Posten 10 (#401)","uuid":"Vitaparcour Posten 10"}},{"geometry":{"coordinates":[6.953144,46.921724],"type":"Point"},"type":"Feature","properties":{"typePOI":"Pokéstop","title":"Terrain de pétanque du lac (#402)","uuid":"Terrain de pétanque du lac"}},{"geometry":{"coordinates":[7.121589,46.788889],"type":"Point"},"type":"Feature","properties":{"typePOI":"Pokéstop","title":"Banc Du Bois Du Platy (#403)","uuid":"Banc Du Bois Du Platy"}},{"geometry":{"coordinates":[7.015925,46.785743],"type":"Point"},"type":"Feature","properties":{"typePOI":"Pokéstop","title":"Auberge de la Cigogne (#404)","uuid":"Auberge de la Cigogne"}},{"geometry":{"coordinates":[7.117656,46.929473],"type":"Point"},"type":"Feature","properties":{"typePOI":"Pokéstop","title":"Chapel Morat (#405)","uuid":"Chapel Morat"}},{"geometry":{"coordinates":[7.018753,46.669041],"type":"Point"},"type":"Feature","properties":{"typePOI":"Pokéstop","title":"Champignons Wood (#406)","uuid":"Champignons Wood"}},{"geometry":{"coordinates":[7.136259,46.789753],"type":"Point"},"type":"Feature","properties":{"typePOI":"Pokéstop","title":"Carillon Brugger (#407)","uuid":"Carillon Brugger"}},{"geometry":{"coordinates":[7.169401,46.798073],"type":"Point"},"type":"Feature","properties":{"typePOI":"Pokéstop","title":"De l\u2019eau à portée de main (#408)","uuid":"De l\u2019eau à portée de main"}},{"geometry":{"coordinates":[6.843938,46.847059],"type":"Point"},"type":"Feature","properties":{"typePOI":"Pokéstop","title":"Spielplatz Route d'Yverdon (#409)","uuid":"Spielplatz Route d'Yverdon"}},{"geometry":{"coordinates":[7.188992,46.648017],"type":"Point"},"type":"Feature","properties":{"typePOI":"Pokéstop","title":"Silence à la Valsainte (#410)","uuid":"Silence à la Valsainte"}},{"geometry":{"coordinates":[7.013746,46.667593],"type":"Point"},"type":"Feature","properties":{"typePOI":"Pokéstop","title":"Hiboux Grand Duc (#411)","uuid":"Hiboux Grand Duc"}},{"geometry":{"coordinates":[7.178771,46.891956],"type":"Point"},"type":"Feature","properties":{"typePOI":"Pokéstop","title":"Offizielles Fussballfeld (#412)","uuid":"Offizielles Fussballfeld"}},{"geometry":{"coordinates":[7.314842,46.891964],"type":"Point"},"type":"Feature","properties":{"typePOI":"Pokéstop","title":"Sense Vitaparcours Posten 15 Ziel (#413)","uuid":"Sense Vitaparcours Posten 15 Ziel"}},{"geometry":{"coordinates":[7.259384,46.824885],"type":"Point"},"type":"Feature","properties":{"typePOI":"Pokéstop","title":"Viktor Schwaller Brunnen (#414)","uuid":"Viktor Schwaller Brunnen"}},{"geometry":{"coordinates":[7.32505,46.866024],"type":"Point"},"type":"Feature","properties":{"typePOI":"Pokéstop","title":"Vitaparcours 3 Uebersdorf (#415)","uuid":"Vitaparcours 3 Uebersdorf"}},{"geometry":{"coordinates":[7.166724,46.810011],"type":"Point"},"type":"Feature","properties":{"typePOI":"Pokéstop","title":"Chapelle de Schoenstatt (#416)","uuid":"Chapelle de Schoenstatt"}},{"geometry":{"coordinates":[7.1168,46.930369],"type":"Point"},"type":"Feature","properties":{"typePOI":"Pokéstop","title":"The Rock Fountain (#417)","uuid":"The Rock Fountain"}},{"geometry":{"coordinates":[6.964288,46.78897],"type":"Point"},"type":"Feature","properties":{"typePOI":"Pokéstop","title":"Croix de Mannens (#418)","uuid":"Croix de Mannens"}},{"geometry":{"coordinates":[6.88878,46.814628],"type":"Point"},"type":"Feature","properties":{"typePOI":"Pokéstop","title":"Fontaine 1977 Cugy (#419)","uuid":"Fontaine 1977 Cugy"}},{"geometry":{"coordinates":[7.30146,46.891892],"type":"Point"},"type":"Feature","properties":{"typePOI":"Pokéstop","title":"Sensebrücke Kantonsgrenzstein (#420)","uuid":"Sensebrücke Kantonsgrenzstein"}},{"geometry":{"coordinates":[7.167651,46.802862],"type":"Point"},"type":"Feature","properties":{"typePOI":"Pokéstop","title":"Café De La Marionnette (#421)","uuid":"Café De La Marionnette"}},{"geometry":{"coordinates":[7.247934,46.853855],"type":"Point"},"type":"Feature","properties":{"typePOI":"Pokéstop","title":"Spielplatz Bodenmatte (#422)","uuid":"Spielplatz Bodenmatte"}},{"geometry":{"coordinates":[7.162154,46.806401],"type":"Point"},"type":"Feature","properties":{"typePOI":"Pokéstop","title":"Le Barbu (#423)","uuid":"Le Barbu"}},{"geometry":{"coordinates":[7.007148,46.791844],"type":"Point"},"type":"Feature","properties":{"typePOI":"Pokéstop","title":"Anneaux (#424)","uuid":"Anneaux"}},{"geometry":{"coordinates":[7.163567,46.619341],"type":"Point"},"type":"Feature","properties":{"typePOI":"Pokéstop","title":"Charmey Fountain (#425)","uuid":"Charmey Fountain"}},{"geometry":{"coordinates":[7.124231,46.963884],"type":"Point"},"type":"Feature","properties":{"typePOI":"Pokéstop","title":"Foot (#426)","uuid":"Foot"}},{"geometry":{"coordinates":[7.136954,46.803665],"type":"Point"},"type":"Feature","properties":{"typePOI":"Pokéstop","title":"Chapelle de Bertigny (#427)","uuid":"Chapelle de Bertigny"}},{"geometry":{"coordinates":[7.215859,46.978134],"type":"Point"},"type":"Feature","properties":{"typePOI":"Pokéstop","title":"Vitaparcours Nr. 12 (#428)","uuid":"Vitaparcours Nr. 12"}},{"geometry":{"coordinates":[7.257663,46.858452],"type":"Point"},"type":"Feature","properties":{"typePOI":"Pokéstop","title":"Vitaparcour Posten 15 (#429)","uuid":"Vitaparcour Posten 15"}},{"geometry":{"coordinates":[7.194305,46.749307],"type":"Point"},"type":"Feature","properties":{"typePOI":"Pokéstop","title":"Totem Nesslera (#430)","uuid":"Totem Nesslera"}},{"geometry":{"coordinates":[7.152235,46.796198],"type":"Point"},"type":"Feature","properties":{"typePOI":"Pokéstop","title":"Fès (#431)","uuid":"Fès"}},{"geometry":{"coordinates":[7.164214,46.802134],"type":"Point"},"type":"Feature","properties":{"typePOI":"Pokéstop","title":"Ane Gris (#432)","uuid":"Ane Gris"}},{"geometry":{"coordinates":[7.218512,46.896586],"type":"Point"},"type":"Feature","properties":{"typePOI":"Pokéstop","title":"Tyrannosaurus (#433)","uuid":"Tyrannosaurus"}},{"geometry":{"coordinates":[6.901055,46.700312],"type":"Point"},"type":"Feature","properties":{"typePOI":"Pokéstop","title":"Stade de football de Bossens (#434)","uuid":"Stade de football de Bossens"}},{"geometry":{"coordinates":[7.166839,46.869316],"type":"Point"},"type":"Feature","properties":{"typePOI":"Pokéstop","title":"Croix en pierre (#435)","uuid":"Croix en pierre"}},{"geometry":{"coordinates":[6.848079,46.520778],"type":"Point"},"type":"Feature","properties":{"typePOI":"Pokéstop","title":"Ruines du Château de Bossonnens (#436)","uuid":"Ruines du Château de Bossonnens"}},{"geometry":{"coordinates":[7.168415,46.768678],"type":"Point"},"type":"Feature","properties":{"typePOI":"Pokéstop","title":"Tennis De Marly (#437)","uuid":"Tennis De Marly"}},{"geometry":{"coordinates":[6.799483,46.817183],"type":"Point"},"type":"Feature","properties":{"typePOI":"Pokéstop","title":"Jesuskreuz (#438)","uuid":"Jesuskreuz"}},{"geometry":{"coordinates":[6.888054,46.875475],"type":"Point"},"type":"Feature","properties":{"typePOI":"Pokéstop","title":"Église de Forel (#439)","uuid":"Église de Forel"}},{"geometry":{"coordinates":[7.120238,46.68619],"type":"Point"},"type":"Feature","properties":{"typePOI":"Pokéstop","title":"L'Unique La Roche (#440)","uuid":"L'Unique La Roche"}},{"geometry":{"coordinates":[7.156537,46.794642],"type":"Point"},"type":"Feature","properties":{"typePOI":"Pokéstop","title":"Poteau de l'hymne national (#441)","uuid":"Poteau de l'hymne national"}},{"geometry":{"coordinates":[6.955025,46.918138],"type":"Point"},"type":"Feature","properties":{"typePOI":"Pokéstop","title":"Croix De La Rive Sud (#442)","uuid":"Croix De La Rive Sud"}},{"geometry":{"coordinates":[6.837568,46.751588],"type":"Point"},"type":"Feature","properties":{"typePOI":"Pokéstop","title":"une veille croix (#443)","uuid":"une veille croix"}},{"geometry":{"coordinates":[7.120898,46.875091],"type":"Point"},"type":"Feature","properties":{"typePOI":"Pokéstop","title":"Parcourvita étape 6 : les anneaux (#444)","uuid":"Parcourvita étape 6 : les anneaux"}},{"geometry":{"coordinates":[7.154926,46.817241],"type":"Point"},"type":"Feature","properties":{"typePOI":"Pokéstop","title":"BCF Arena Fribourg (#445)","uuid":"BCF Arena Fribourg"}},{"geometry":{"coordinates":[6.784782,46.816814],"type":"Point"},"type":"Feature","properties":{"typePOI":"Pokéstop","title":"Plan Touristique (#446)","uuid":"Plan Touristique"}},{"geometry":{"coordinates":[6.914544,46.694239],"type":"Point"},"type":"Feature","properties":{"typePOI":"Pokéstop","title":"Joli vitrail (#447)","uuid":"Joli vitrail"}},{"geometry":{"coordinates":[7.060573,46.721982],"type":"Point"},"type":"Feature","properties":{"typePOI":"Pokéstop","title":"terrain de pétanque (#448)","uuid":"terrain de pétanque"}},{"geometry":{"coordinates":[7.257653,46.859744],"type":"Point"},"type":"Feature","properties":{"typePOI":"Pokéstop","title":"Vitaparcour Posten 1 (#449)","uuid":"Vitaparcour Posten 1"}},{"geometry":{"coordinates":[7.174401,46.669896],"type":"Point"},"type":"Feature","properties":{"typePOI":"Pokéstop","title":"\"Der Adler\" de la Berra (#450)","uuid":"\"Der Adler\" de la Berra"}},{"geometry":{"coordinates":[7.063928,46.65596],"type":"Point"},"type":"Feature","properties":{"typePOI":"Pokéstop","title":"Ancien Camion Pompier (#451)","uuid":"Ancien Camion Pompier"}},{"geometry":{"coordinates":[7.274266,46.727462],"type":"Point"},"type":"Feature","properties":{"typePOI":"Pokéstop","title":"Vitaparcours Posten 9 (#452)","uuid":"Vitaparcours Posten 9"}},{"geometry":{"coordinates":[7.075787,46.833492],"type":"Point"},"type":"Feature","properties":{"typePOI":"Pokéstop","title":"Mission 1947 (#453)","uuid":"Mission 1947"}},{"geometry":{"coordinates":[7.1609,46.803278],"type":"Point"},"type":"Feature","properties":{"typePOI":"Pokéstop","title":"Game place Neuveville (#454)","uuid":"Game place Neuveville"}},{"geometry":{"coordinates":[6.84545,46.846931],"type":"Point"},"type":"Feature","properties":{"typePOI":"Pokéstop","title":"Peinture des lutteurs (#455)","uuid":"Peinture des lutteurs"}},{"geometry":{"coordinates":[7.280859,46.873533],"type":"Point"},"type":"Feature","properties":{"typePOI":"Pokéstop","title":"Spielplatz Eichenstrasse (#456)","uuid":"Spielplatz Eichenstrasse"}},{"geometry":{"coordinates":[7.002543,46.841975],"type":"Point"},"type":"Feature","properties":{"typePOI":"Pokéstop","title":"Bassin de Russy 1965 (#457)","uuid":"Bassin de Russy 1965"}},{"geometry":{"coordinates":[7.153219,46.628118],"type":"Point"},"type":"Feature","properties":{"typePOI":"Pokéstop","title":"Paisible (#458)","uuid":"Paisible"}},{"geometry":{"coordinates":[7.06215,46.504851],"type":"Point"},"type":"Feature","properties":{"typePOI":"Pokéstop","title":"La Fontaine (#459)","uuid":"La Fontaine"}},{"geometry":{"coordinates":[6.881584,46.670508],"type":"Point"},"type":"Feature","properties":{"typePOI":"Pokéstop","title":"La Croix D'hennens (#460)","uuid":"La Croix D'hennens"}},{"geometry":{"coordinates":[7.013802,46.87401],"type":"Point"},"type":"Feature","properties":{"typePOI":"Pokéstop","title":"Cadran Solaire (#461)","uuid":"Cadran Solaire"}},{"geometry":{"coordinates":[7.323945,46.893206],"type":"Point"},"type":"Feature","properties":{"typePOI":"Pokéstop","title":"Sense Kantonsgrenzstein (#462)","uuid":"Sense Kantonsgrenzstein"}},{"geometry":{"coordinates":[7.066917,46.94971],"type":"Point"},"type":"Feature","properties":{"typePOI":"Pokéstop","title":"Fontaine De Jouvence (#463)","uuid":"Fontaine De Jouvence"}},{"geometry":{"coordinates":[7.237787,46.770644],"type":"Point"},"type":"Feature","properties":{"typePOI":"Pokéstop","title":"Kreuz Kath. Arbeiterverein (#464)","uuid":"Kreuz Kath. Arbeiterverein"}},{"geometry":{"coordinates":[6.830505,46.843575],"type":"Point"},"type":"Feature","properties":{"typePOI":"Pokéstop","title":"Réserve Naturelle de Cheyres (#465)","uuid":"Réserve Naturelle de Cheyres"}},{"geometry":{"coordinates":[6.890842,46.690815],"type":"Point"},"type":"Feature","properties":{"typePOI":"Pokéstop","title":"Vache De La Préhistoire (#466)","uuid":"Vache De La Préhistoire"}},{"geometry":{"coordinates":[7.108577,46.917035],"type":"Point"},"type":"Feature","properties":{"typePOI":"Pokéstop","title":"Mural Philo (#467)","uuid":"Mural Philo"}},{"geometry":{"coordinates":[7.268044,46.869648],"type":"Point"},"type":"Feature","properties":{"typePOI":"Pokéstop","title":"Jesus-Grabstein Paul Fasel (#468)","uuid":"Jesus-Grabstein Paul Fasel"}},{"geometry":{"coordinates":[7.297287,46.791435],"type":"Point"},"type":"Feature","properties":{"typePOI":"Pokéstop","title":"Maulbeere (#469)","uuid":"Maulbeere"}},{"geometry":{"coordinates":[7.269394,46.646224],"type":"Point"},"type":"Feature","properties":{"typePOI":"Pokéstop","title":"Kreuz und spitzfluh (#470)","uuid":"Kreuz und spitzfluh"}},{"geometry":{"coordinates":[7.1594,46.799116],"type":"Point"},"type":"Feature","properties":{"typePOI":"Pokéstop","title":"Lachse (#471)","uuid":"Lachse"}},{"geometry":{"coordinates":[7.1957,46.976151],"type":"Point"},"type":"Feature","properties":{"typePOI":"Pokéstop","title":"Weltkriegsdenkmal (#472)","uuid":"Weltkriegsdenkmal"}},{"geometry":{"coordinates":[7.266556,46.800521],"type":"Point"},"type":"Feature","properties":{"typePOI":"Pokéstop","title":"Vitaparcours Start (#473)","uuid":"Vitaparcours Start"}},{"geometry":{"coordinates":[7.081785,46.779243],"type":"Point"},"type":"Feature","properties":{"typePOI":"Pokéstop","title":"Cia La Grue En Bois (#474)","uuid":"Cia La Grue En Bois"}},{"geometry":{"coordinates":[6.930231,46.607616],"type":"Point"},"type":"Feature","properties":{"typePOI":"Pokéstop","title":"Le Sentier - L'ours (#475)","uuid":"Le Sentier - L'ours"}},{"geometry":{"coordinates":[7.16826,46.810831],"type":"Point"},"type":"Feature","properties":{"typePOI":"Pokéstop","title":"Petite place pour jouer au foot (#476)","uuid":"Petite place pour jouer au foot"}},{"geometry":{"coordinates":[7.175153,46.812962],"type":"Point"},"type":"Feature","properties":{"typePOI":"Pokéstop","title":"Le canard et les blancs (#477)","uuid":"Le canard et les blancs"}},{"geometry":{"coordinates":[6.787034,46.814014],"type":"Point"},"type":"Feature","properties":{"typePOI":"Pokéstop","title":"Monument mit altem Pflug (#478)","uuid":"Monument mit altem Pflug"}},{"geometry":{"coordinates":[7.257591,46.819202],"type":"Point"},"type":"Feature","properties":{"typePOI":"Pokéstop","title":"Wegkreuz Fluh (#479)","uuid":"Wegkreuz Fluh"}},{"geometry":{"coordinates":[7.138058,46.781681],"type":"Point"},"type":"Feature","properties":{"typePOI":"Pokéstop","title":"Playground champ montant (#480)","uuid":"Playground champ montant"}},{"geometry":{"coordinates":[7.11364,46.766909],"type":"Point"},"type":"Feature","properties":{"typePOI":"Pokéstop","title":"Centre de formation lait et agroalimentaire (#481)","uuid":"Centre de formation lait et agroalimentaire"}},{"geometry":{"coordinates":[7.120837,46.929457],"type":"Point"},"type":"Feature","properties":{"typePOI":"Pokéstop","title":"Historic Building (#482)","uuid":"Historic Building"}},{"geometry":{"coordinates":[7.11823,46.789349],"type":"Point"},"type":"Feature","properties":{"typePOI":"Pokéstop","title":"El Pulpo (#483)","uuid":"El Pulpo"}},{"geometry":{"coordinates":[7.014853,46.785502],"type":"Point"},"type":"Feature","properties":{"typePOI":"Pokéstop","title":"Eglises de Prez-Vers-Noreaz (#484)","uuid":"Eglises de Prez-Vers-Noreaz"}},{"geometry":{"coordinates":[7.074532,46.788205],"type":"Point"},"type":"Feature","properties":{"typePOI":"Pokéstop","title":"Croix Mission 1932 (#485)","uuid":"Croix Mission 1932"}},{"geometry":{"coordinates":[7.190032,46.850535],"type":"Point"},"type":"Feature","properties":{"typePOI":"Pokéstop","title":"Dorfbrunnen (#486)","uuid":"Dorfbrunnen"}},{"geometry":{"coordinates":[7.156516,46.805059],"type":"Point"},"type":"Feature","properties":{"typePOI":"Pokéstop","title":"Église Des Ursulines (#487)","uuid":"Église Des Ursulines"}},{"geometry":{"coordinates":[7.184428,46.901721],"type":"Point"},"type":"Feature","properties":{"typePOI":"Pokéstop","title":"Brunnen obere Mühle (#488)","uuid":"Brunnen obere Mühle"}},{"geometry":{"coordinates":[6.920061,46.696239],"type":"Point"},"type":"Feature","properties":{"typePOI":"Pokéstop","title":"vitro parcours Romont: sentier du verre (#489)","uuid":"vitro parcours Romont: sentier du verre"}},{"geometry":{"coordinates":[7.186823,46.825555],"type":"Point"},"type":"Feature","properties":{"typePOI":"Pokéstop","title":"Spielplatz Mariahilf (#490)","uuid":"Spielplatz Mariahilf"}},{"geometry":{"coordinates":[6.990806,46.721926],"type":"Point"},"type":"Feature","properties":{"typePOI":"Pokéstop","title":"Grotte de Marie (#491)","uuid":"Grotte de Marie"}},{"geometry":{"coordinates":[7.219907,46.740741],"type":"Point"},"type":"Feature","properties":{"typePOI":"Pokéstop","title":"St. Silvester Infoschild (#492)","uuid":"St. Silvester Infoschild"}},{"geometry":{"coordinates":[7.148915,46.912487],"type":"Point"},"type":"Feature","properties":{"typePOI":"Pokéstop","title":"Salvenach, Tower of Power (#493)","uuid":"Salvenach, Tower of Power"}},{"geometry":{"coordinates":[6.868827,46.815734],"type":"Point"},"type":"Feature","properties":{"typePOI":"Pokéstop","title":"Chapelle Du Souvenir (#494)","uuid":"Chapelle Du Souvenir"}},{"geometry":{"coordinates":[7.103726,46.671054],"type":"Point"},"type":"Feature","properties":{"typePOI":"Pokéstop","title":"Croix Abritée (#495)","uuid":"Croix Abritée"}},{"geometry":{"coordinates":[7.17489,46.91458],"type":"Point"},"type":"Feature","properties":{"typePOI":"Pokéstop","title":"Genreservat (#496)","uuid":"Genreservat"}},{"geometry":{"coordinates":[7.016947,46.782874],"type":"Point"},"type":"Feature","properties":{"typePOI":"Pokéstop","title":"Mission 1942 Prez-vers-Noreaz (#497)","uuid":"Mission 1942 Prez-vers-Noreaz"}},{"geometry":{"coordinates":[7.195294,46.92724],"type":"Point"},"type":"Feature","properties":{"typePOI":"Pokéstop","title":"Hydrant gelb-schwarz (#498)","uuid":"Hydrant gelb-schwarz"}},{"geometry":{"coordinates":[7.017354,46.668313],"type":"Point"},"type":"Feature","properties":{"typePOI":"Pokéstop","title":"Caquelon à Fondue (#499)","uuid":"Caquelon à Fondue"}},{"geometry":{"coordinates":[7.193821,46.974255],"type":"Point"},"type":"Feature","properties":{"typePOI":"Pokéstop","title":"Poststelle Kerzers (#500)","uuid":"Poststelle Kerzers"}},{"geometry":{"coordinates":[6.849059,46.510803],"type":"Point"},"type":"Feature","properties":{"typePOI":"Pokéstop","title":"Église d'Attalens (#501)","uuid":"Église d'Attalens"}},{"geometry":{"coordinates":[6.932588,46.902828],"type":"Point"},"type":"Feature","properties":{"typePOI":"Pokéstop","title":"Infokarte Vita Parcours (#502)","uuid":"Infokarte Vita Parcours"}},{"geometry":{"coordinates":[7.092267,46.8648],"type":"Point"},"type":"Feature","properties":{"typePOI":"Pokéstop","title":"Croix en bois 1991 (#503)","uuid":"Croix en bois 1991"}},{"geometry":{"coordinates":[7.059456,46.698543],"type":"Point"},"type":"Feature","properties":{"typePOI":"Pokéstop","title":"Parcourvita (#504)","uuid":"Parcourvita"}},{"geometry":{"coordinates":[7.231511,46.59955],"type":"Point"},"type":"Feature","properties":{"typePOI":"Pokéstop","title":"Der Teich und die Kinderzeichnungen (#505)","uuid":"Der Teich und die Kinderzeichnungen"}},{"geometry":{"coordinates":[6.87533,46.815707],"type":"Point"},"type":"Feature","properties":{"typePOI":"Pokéstop","title":"Stade de Montet (#506)","uuid":"Stade de Montet"}},{"geometry":{"coordinates":[7.063748,46.768123],"type":"Point"},"type":"Feature","properties":{"typePOI":"Pokéstop","title":"Place de jeux inférieure Terre-Lune (#507)","uuid":"Place de jeux inférieure Terre-Lune"}},{"geometry":{"coordinates":[6.996231,46.638446],"type":"Point"},"type":"Feature","properties":{"typePOI":"Pokéstop","title":"Maules - Croix (#508)","uuid":"Maules - Croix"}},{"geometry":{"coordinates":[7.301853,46.881893],"type":"Point"},"type":"Feature","properties":{"typePOI":"Pokéstop","title":"Angebaggert (#509)","uuid":"Angebaggert"}},{"geometry":{"coordinates":[7.122139,46.926183],"type":"Point"},"type":"Feature","properties":{"typePOI":"Pokéstop","title":"Murtens Apfelgarten (#510)","uuid":"Murtens Apfelgarten"}},{"geometry":{"coordinates":[7.076598,46.952161],"type":"Point"},"type":"Feature","properties":{"typePOI":"Pokéstop","title":"Aigle De La Serrurerie D'art (#511)","uuid":"Aigle De La Serrurerie D'art"}},{"geometry":{"coordinates":[6.956346,46.876495],"type":"Point"},"type":"Feature","properties":{"typePOI":"Pokéstop","title":"Musee Romain De Vallon (#512)","uuid":"Musee Romain De Vallon"}},{"geometry":{"coordinates":[7.115455,46.837717],"type":"Point"},"type":"Feature","properties":{"typePOI":"Pokéstop","title":"Croix De La Corbaz (#513)","uuid":"Croix De La Corbaz"}},{"geometry":{"coordinates":[7.130265,46.800701],"type":"Point"},"type":"Feature","properties":{"typePOI":"Pokéstop","title":"Park Villars-Vert (#514)","uuid":"Park Villars-Vert"}},{"geometry":{"coordinates":[6.886488,46.88029],"type":"Point"},"type":"Feature","properties":{"typePOI":"Pokéstop","title":"notre dame des flots (#515)","uuid":"notre dame des flots"}},{"geometry":{"coordinates":[7.065328,46.608363],"type":"Point"},"type":"Feature","properties":{"typePOI":"Pokéstop","title":"Croix Du Jubilé 2000 La Tour-de-Treme (#516)","uuid":"Croix Du Jubilé 2000 La Tour-de-Treme"}},{"geometry":{"coordinates":[6.973571,46.635605],"type":"Point"},"type":"Feature","properties":{"typePOI":"Pokéstop","title":"Église Sâles (#517)","uuid":"Église Sâles"}},{"geometry":{"coordinates":[7.194152,46.975041],"type":"Point"},"type":"Feature","properties":{"typePOI":"Pokéstop","title":"Info-Tafel Gemeinde (#518)","uuid":"Info-Tafel Gemeinde"}},{"geometry":{"coordinates":[7.248874,46.751567],"type":"Point"},"type":"Feature","properties":{"typePOI":"Pokéstop","title":"Wegkreuz Guglera (#519)","uuid":"Wegkreuz Guglera"}},{"geometry":{"coordinates":[7.082054,46.58041],"type":"Point"},"type":"Feature","properties":{"typePOI":"Pokéstop","title":"Gruyères: WWII Anti-Tank Wall South (#520)","uuid":"Gruyères: WWII Anti-Tank Wall South"}},{"geometry":{"coordinates":[6.852253,46.848185],"type":"Point"},"type":"Feature","properties":{"typePOI":"Pokéstop","title":"Motel à insectes (#521)","uuid":"Motel à insectes"}},{"geometry":{"coordinates":[7.09195,46.961907],"type":"Point"},"type":"Feature","properties":{"typePOI":"Pokéstop","title":"L'Opidium Du Mont-Vully (#522)","uuid":"L'Opidium Du Mont-Vully"}},{"geometry":{"coordinates":[7.212169,46.852304],"type":"Point"},"type":"Feature","properties":{"typePOI":"Pokéstop","title":"Rüttihubel (#523)","uuid":"Rüttihubel"}},{"geometry":{"coordinates":[6.922505,46.697658],"type":"Point"},"type":"Feature","properties":{"typePOI":"Pokéstop","title":"Fontaine des Bossonets (#524)","uuid":"Fontaine des Bossonets"}},{"geometry":{"coordinates":[6.91614,46.694804],"type":"Point"},"type":"Feature","properties":{"typePOI":"Pokéstop","title":"Joli vitrail 3 (#525)","uuid":"Joli vitrail 3"}},{"geometry":{"coordinates":[7.052054,46.496468],"type":"Point"},"type":"Feature","properties":{"typePOI":"Pokéstop","title":"Pont Couvert, Montbovon (#526)","uuid":"Pont Couvert, Montbovon"}},{"geometry":{"coordinates":[6.846527,46.624888],"type":"Point"},"type":"Feature","properties":{"typePOI":"Pokéstop","title":"Croix de chemin sur la route d\u2019Ursy (#527)","uuid":"Croix de chemin sur la route d\u2019Ursy"}},{"geometry":{"coordinates":[7.097326,46.686648],"type":"Point"},"type":"Feature","properties":{"typePOI":"Pokéstop","title":"Place de jeu du Vignier (#528)","uuid":"Place de jeu du Vignier"}},{"geometry":{"coordinates":[7.161058,46.844106],"type":"Point"},"type":"Feature","properties":{"typePOI":"Pokéstop","title":"Waldegg Kapelle (#529)","uuid":"Waldegg Kapelle"}},{"geometry":{"coordinates":[7.120585,46.79726],"type":"Point"},"type":"Feature","properties":{"typePOI":"Pokéstop","title":"Quadruple échelle de Moncor (#530)","uuid":"Quadruple échelle de Moncor"}},{"geometry":{"coordinates":[7.162853,46.801189],"type":"Point"},"type":"Feature","properties":{"typePOI":"Pokéstop","title":"Chapelle Saint-Jost (#531)","uuid":"Chapelle Saint-Jost"}},{"geometry":{"coordinates":[7.031823,46.749832],"type":"Point"},"type":"Feature","properties":{"typePOI":"Pokéstop","title":"Public Basketball Playground in Cottens (#532)","uuid":"Public Basketball Playground in Cottens"}},{"geometry":{"coordinates":[7.115154,46.767542],"type":"Point"},"type":"Feature","properties":{"typePOI":"Pokéstop","title":"3 Minutes Pour Un Banc (#533)","uuid":"3 Minutes Pour Un Banc"}},{"geometry":{"coordinates":[7.097526,46.95571],"type":"Point"},"type":"Feature","properties":{"typePOI":"Pokéstop","title":"Sentier viticole - Les cépages rouges (#534)","uuid":"Sentier viticole - Les cépages rouges"}},{"geometry":{"coordinates":[7.058012,46.627488],"type":"Point"},"type":"Feature","properties":{"typePOI":"Pokéstop","title":"Jeux De Bois (#535)","uuid":"Jeux De Bois"}},{"geometry":{"coordinates":[7.169531,46.794204],"type":"Point"},"type":"Feature","properties":{"typePOI":"Pokéstop","title":"Haies et lisières (#536)","uuid":"Haies et lisières"}},{"geometry":{"coordinates":[7.164468,46.774101],"type":"Point"},"type":"Feature","properties":{"typePOI":"Pokéstop","title":"Little Game Place des Pralettes (#537)","uuid":"Little Game Place des Pralettes"}},{"geometry":{"coordinates":[7.119742,46.875644],"type":"Point"},"type":"Feature","properties":{"typePOI":"Pokéstop","title":"Parcourvita étape 5 : mouvements rotatifs (#538)","uuid":"Parcourvita étape 5 : mouvements rotatifs"}},{"geometry":{"coordinates":[7.207164,46.998427],"type":"Point"},"type":"Feature","properties":{"typePOI":"Pokéstop","title":"Gemeindehausturm In Fraeschels (#539)","uuid":"Gemeindehausturm In Fraeschels"}},{"geometry":{"coordinates":[7.125529,46.913305],"type":"Point"},"type":"Feature","properties":{"typePOI":"Pokéstop","title":"Trinkender Bär (#540)","uuid":"Trinkender Bär"}},{"geometry":{"coordinates":[7.247872,46.8641],"type":"Point"},"type":"Feature","properties":{"typePOI":"Pokéstop","title":"Tennisplatz Schmitten (#541)","uuid":"Tennisplatz Schmitten"}},{"geometry":{"coordinates":[7.134796,46.820102],"type":"Point"},"type":"Feature","properties":{"typePOI":"Pokéstop","title":"Snake (#542)","uuid":"Snake"}},{"geometry":{"coordinates":[6.856277,46.848828],"type":"Point"},